[
 {
  "id": "4",
  "name": "Abass Ndao",
  "type": "hopital",
  "region": "Dakar",
  "lat": 14.6848348241,
  "lon": -17.4543269798
 },
 {
  "id": "9",
  "name": "Abdoul Aziz Daff",
  "type": "centre de sante",
  "region": "Dakar",
  "lat": 14.7571402192,
  "lon": -17.4387777316
 },
 {
  "id": "17",
  "name": "Abou Soufiane Daffe",
  "type": "centre de sante",
  "region": "Dakar",
  "lat": 14.67938,
  "lon": -17.46191
 },
 {
  "id": "27",
  "name": "Ainoumady Keur Massar",
  "type": "poste de sante",
  "region": "Dakar",
  "lat": 14.7755,
  "lon": -17.3123
 },
 {
  "id": "28",
  "name": "Ainoumady Sotrac",
  "type": "poste de sante",
  "region": "Dakar",
  "lat": 14.7866417308,
  "lon": -17.3511208459
 },
 {
  "id": "31",
  "name": "Al Falah",
  "type": "poste de sante",
  "region": "Dakar",
  "lat": 14.6958030995,
  "lon": -17.4437666955
 },
 {
  "id": "33",
  "name": "Aladji Pathe",
  "type": "poste de sante",
  "region": "Dakar",
  "lat": 14.7747007687,
  "lon": -17.3000042133
 },
 {
  "id": "42",
  "name": "Alioune Blondin Diop",
  "type": "poste de sante",
  "region": "Dakar",
  "lat": 14.7075828,
  "lon": -17.45949178
 },
 {
  "id": "55",
  "name": "Amadou Diaw",
  "type": "poste de sante",
  "region": "Dakar",
  "lat": 14.66663904,
  "lon": -17.43369027
 },
 {
  "id": "74",
  "name": "Apecsy 1",
  "type": "poste de sante",
  "region": "Dakar",
  "lat": 14.7609043213,
  "lon": -17.4654628816
 },
 {
  "id": "75",
  "name": "Apix",
  "type": "poste de sante",
  "region": "Dakar",
  "lat": 14.8056641691,
  "lon": -17.2919513548
 },
 {
  "id": "76",
  "name": "Aqdev Cite Lobatt Fall",
  "type": "poste de sante",
  "region": "Dakar",
  "lat": 14.77003,
  "lon": -17.37909
 },
 {
  "id": "77",
  "name": "Arafat",
  "type": "poste de sante",
  "region": "Dakar",
  "lat": 14.7153983364,
  "lon": -17.2637280639
 },
 {
  "id": "80",
  "name": "Aristide Le Dantec",
  "type": "hopital",
  "region": "Dakar",
  "lat": 14.657233,
  "lon": -17.436817
 },
 {
  "id": "84",
  "name": "Asbef",
  "type": "centre de sante",
  "region": "Dakar",
  "lat": 14.7272254785,
  "lon": -17.4486657757
 },
 {
  "id": "85",
  "name": "Asbef",
  "type": "poste de sante",
  "region": "Dakar",
  "lat": 14.77334,
  "lon": -17.40816
 },
 {
  "id": "86",
  "name": "Asecna",
  "type": "poste de sante",
  "region": "Dakar",
  "lat": 14.7475933408,
  "lon": -17.490864096
 },
 {
  "id": "102",
  "name": "Babacar Kebe",
  "type": "poste de sante",
  "region": "Dakar",
  "lat": 14.70295,
  "lon": -17.472533
 },
 {
  "id": "108",
  "name": "Badreddine Ali Rachid",
  "type": "poste de sante",
  "region": "Dakar",
  "lat": 14.66623,
  "lon": -17.43746
 },
 {
  "id": "110",
  "name": "Bambilor",
  "type": "poste de sante",
  "region": "Dakar",
  "lat": 14.8011119165,
  "lon": -17.1856666666
 },
 {
  "id": "111",
  "name": "Bargny Guedji",
  "type": "poste de sante",
  "region": "Dakar",
  "lat": 14.6851635888,
  "lon": -17.2247608373
 },
 {
  "id": "116",
  "name": "Bene Tally",
  "type": "poste de sante",
  "region": "Dakar",
  "lat": 14.714715,
  "lon": -17.449638
 },
 {
  "id": "124",
  "name": "Boune",
  "type": "poste de sante",
  "region": "Dakar",
  "lat": 14.7660514789,
  "lon": -17.3394817058
 },
 {
  "id": "125",
  "name": "Bourguiba",
  "type": "poste de sante",
  "region": "Dakar",
  "lat": 14.7147794833,
  "lon": -17.4531568768
 },
 {
  "id": "127",
  "name": "Brigham & Younger",
  "type": "centre de sante",
  "region": "Dakar",
  "lat": 14.79893682,
  "lon": -17.33806977
 },
 {
  "id": "134",
  "name": "Camberene",
  "type": "poste de sante",
  "region": "Dakar",
  "lat": 14.76553,
  "lon": -17.42918
 },
 {
  "id": "135",
  "name": "Camberene",
  "type": "centre de sante",
  "region": "Dakar",
  "lat": 14.7655570139,
  "lon": -17.4292776825
 },
 {
  "id": "136",
  "name": "Camberene 2",
  "type": "poste de sante",
  "region": "Dakar",
  "lat": 14.7699073809,
  "lon": -17.4196794711
 },
 {
  "id": "137",
  "name": "Camp Abdou Diasse",
  "type": "centre de sante",
  "region": "Dakar",
  "lat": 14.6869084444,
  "lon": -17.4407698866
 },
 {
  "id": "139",
  "name": "Camp Lemonier",
  "type": "centre de sante",
  "region": "Dakar",
  "lat": 14.69971,
  "lon": -17.43675
 },
 {
  "id": "140",
  "name": "Camp Militaire Thiaroye",
  "type": "centre de sante",
  "region": "Dakar",
  "lat": 14.753583,
  "lon": -17.372767
 },
 {
  "id": "141",
  "name": "Camp Militaire Yeumbel",
  "type": "centre de sante",
  "region": "Dakar",
  "lat": 14.77412,
  "lon": -17.34737
 },
 {
  "id": "142",
  "name": "Camp Sapeurs Pompiers",
  "type": "poste de sante",
  "region": "Dakar",
  "lat": 14.6838303502,
  "lon": -17.4398445257
 },
 {
  "id": "143",
  "name": "Camp Sekou Mballo",
  "type": "poste de sante",
  "region": "Dakar",
  "lat": 14.7315475722,
  "lon": -17.458646967
 },
 {
  "id": "144",
  "name": "Cap",
  "type": "centre de sante",
  "region": "Dakar",
  "lat": 14.7516021774,
  "lon": -17.4368096429
 },
 {
  "id": "148",
  "name": "Casahous",
  "type": "centre de sante",
  "region": "Dakar",
  "lat": 14.66965,
  "lon": -17.43309
 },
 {
  "id": "149",
  "name": "Cctas",
  "type": "poste de sante",
  "region": "Dakar",
  "lat": 14.77484095,
  "lon": -17.35301261
 },
 {
  "id": "151",
  "name": "Centre D'Imagerie Diagnostique Et Interventionnelle De Soumbedioum",
  "type": "centre de sante",
  "region": "Dakar",
  "lat": 14.67885139,
  "lon": -17.46277757
 },
 {
  "id": "152",
  "name": "Centre De Medecine Naturel Universalis",
  "type": "centre de sante",
  "region": "Dakar",
  "lat": 14.75498103,
  "lon": -17.39763937
 },
 {
  "id": "153",
  "name": "Centre De Promotion Et De Reinsertion Sociale",
  "type": "poste de sante",
  "region": "Dakar",
  "lat": 14.67891,
  "lon": -17.45436
 },
 {
  "id": "154",
  "name": "Centre Du Diabete Marc Sankale",
  "type": "centre de sante",
  "region": "Dakar",
  "lat": 14.68440273,
  "lon": -17.45556041
 },
 {
  "id": "155",
  "name": "Centre Hyacinthe Thiandoum",
  "type": "poste de sante",
  "region": "Dakar",
  "lat": 14.752,
  "lon": -17.4548
 },
 {
  "id": "156",
  "name": "Centre Medical",
  "type": "centre de sante",
  "region": "Dakar",
  "lat": 14.78225675,
  "lon": -17.38142416
 },
 {
  "id": "157",
  "name": "Centre Medical \"\"Americain\"\"",
  "type": "centre de sante",
  "region": "Dakar",
  "lat": 14.73883388,
  "lon": -17.45732841
 },
 {
  "id": "158",
  "name": "Centre Medical Al Afia",
  "type": "centre de sante",
  "region": "Dakar",
  "lat": 14.7576205,
  "lon": -17.465153
 },
 {
  "id": "159",
  "name": "Centre Medico - Social De La Poste",
  "type": "poste de sante",
  "region": "Dakar",
  "lat": 14.7122439363,
  "lon": -17.4546188304
 },
 {
  "id": "160",
  "name": "Centre Medico - Social Sde",
  "type": "poste de sante",
  "region": "Dakar",
  "lat": 14.72002,
  "lon": -17.43394
 },
 {
  "id": "161",
  "name": "Centre Medico Social Centre Socio Culturel P.A",
  "type": "poste de sante",
  "region": "Dakar",
  "lat": 14.666,
  "lon": -17.435
 },
 {
  "id": "162",
  "name": "Centre Medico Social Des Douanes",
  "type": "centre de sante",
  "region": "Dakar",
  "lat": 14.69967,
  "lon": -17.44408
 },
 {
  "id": "163",
  "name": "Centre Medico Social Wergui Yaram",
  "type": "centre de sante",
  "region": "Dakar",
  "lat": 14.76424505,
  "lon": -17.37023792
 },
 {
  "id": "166",
  "name": "Cheikh Ahmadou Bamba",
  "type": "centre de sante",
  "region": "Dakar",
  "lat": 14.70955933,
  "lon": -17.44944691
 },
 {
  "id": "168",
  "name": "Cheikh Anta Diop",
  "type": "hopital",
  "region": "Dakar",
  "lat": 14.69446,
  "lon": -17.46408
 },
 {
  "id": "170",
  "name": "Cheikh H Bamba",
  "type": "hopital",
  "region": "Dakar",
  "lat": 14.70855,
  "lon": -17.461017
 },
 {
  "id": "175",
  "name": "Cheikh Sidaty Fall",
  "type": "poste de sante",
  "region": "Dakar",
  "lat": 14.76663859,
  "lon": -17.35407242
 },
 {
  "id": "181",
  "name": "Chifaa",
  "type": "centre de sante",
  "region": "Dakar",
  "lat": 14.7558341598,
  "lon": -17.4510165738
 },
 {
  "id": "192",
  "name": "Clinique Berthel",
  "type": "hopital",
  "region": "Dakar",
  "lat": 14.66767,
  "lon": -17.43716
 },
 {
  "id": "196",
  "name": "Clinique De L'Amitie",
  "type": "centre de sante",
  "region": "Dakar",
  "lat": 14.7314520018,
  "lon": -17.4565143972
 },
 {
  "id": "198",
  "name": "Clinique Diabot",
  "type": "centre de sante",
  "region": "Dakar",
  "lat": 14.70192,
  "lon": -17.46193
 },
 {
  "id": "199",
  "name": "Clinique Diam",
  "type": "centre de sante",
  "region": "Dakar",
  "lat": 14.76017,
  "lon": -17.45215
 },
 {
  "id": "202",
  "name": "Clinique El Hadji Omar",
  "type": "hopital",
  "region": "Dakar",
  "lat": 14.709867,
  "lon": -17.463383
 },
 {
  "id": "203",
  "name": "Clinique Endss",
  "type": "poste de sante",
  "region": "Dakar",
  "lat": 14.69305556,
  "lon": -17.46361111
 },
 {
  "id": "205",
  "name": "Clinique Internationale",
  "type": "centre de sante",
  "region": "Dakar",
  "lat": 14.69912,
  "lon": -17.45363
 },
 {
  "id": "206",
  "name": "Clinique Kellebana",
  "type": "poste de sante",
  "region": "Dakar",
  "lat": 14.74924,
  "lon": -17.40598
 },
 {
  "id": "209",
  "name": "Clinique Marie",
  "type": "centre de sante",
  "region": "Dakar",
  "lat": 14.72738,
  "lon": -17.46044
 },
 {
  "id": "215",
  "name": "Clinique Oceane",
  "type": "hopital",
  "region": "Dakar",
  "lat": 14.74941,
  "lon": -17.50574
 },
 {
  "id": "217",
  "name": "Clinique Point E",
  "type": "hopital",
  "region": "Dakar",
  "lat": 14.70279,
  "lon": -17.46198
 },
 {
  "id": "218",
  "name": "Clinique Raby",
  "type": "centre de sante",
  "region": "Dakar",
  "lat": 14.72319,
  "lon": -17.45452
 },
 {
  "id": "219",
  "name": "Clinique Saliou Dia",
  "type": "hopital",
  "region": "Dakar",
  "lat": 14.75643,
  "lon": -17.39636
 },
 {
  "id": "221",
  "name": "Clinique Thierno Kandji",
  "type": "centre de sante",
  "region": "Dakar",
  "lat": 14.766584143,
  "lon": -17.414684949
 },
 {
  "id": "222",
  "name": "Clinique Yasin",
  "type": "centre de sante",
  "region": "Dakar",
  "lat": 14.7569453281,
  "lon": -17.4394556203
 },
 {
  "id": "223",
  "name": "Cliniqueastou Diaara",
  "type": "centre de sante",
  "region": "Dakar",
  "lat": 14.75312,
  "lon": -17.39499
 },
 {
  "id": "225",
  "name": "Cms Fonctionnaires",
  "type": "poste de sante",
  "region": "Dakar",
  "lat": 14.66593,
  "lon": -17.43506
 },
 {
  "id": "226",
  "name": "Colaser",
  "type": "centre de sante",
  "region": "Dakar",
  "lat": 14.66902,
  "lon": -17.43039
 },
 {
  "id": "227",
  "name": "Colobane",
  "type": "centre de sante",
  "region": "Dakar",
  "lat": 14.6961367308,
  "lon": -17.4456144224
 },
 {
  "id": "228",
  "name": "Communautaire De Tonghor",
  "type": "poste de sante",
  "region": "Dakar",
  "lat": 14.7642356375,
  "lon": -17.4802044069
 },
 {
  "id": "230",
  "name": "Communautaire Golf Sud Acdev",
  "type": "centre de sante",
  "region": "Dakar",
  "lat": 14.7580164661,
  "lon": -17.4247213118
 },
 {
  "id": "234",
  "name": "Croix Bleue",
  "type": "centre de sante",
  "region": "Dakar",
  "lat": 14.72239134,
  "lon": -17.4515187106
 },
 {
  "id": "235",
  "name": "Croix Rouge",
  "type": "poste de sante",
  "region": "Dakar",
  "lat": 14.7518620715,
  "lon": -17.3920425177
 },
 {
  "id": "236",
  "name": "Croix Rouge Hlm Paris",
  "type": "poste de sante",
  "region": "Dakar",
  "lat": 14.7713308195,
  "lon": -17.4023763387
 },
 {
  "id": "238",
  "name": "D'Enfant De Diamniadio",
  "type": "hopital",
  "region": "Dakar",
  "lat": 14.7273411003,
  "lon": -17.1636894797
 },
 {
  "id": "242",
  "name": "Dalifort",
  "type": "poste de sante",
  "region": "Dakar",
  "lat": 14.7420802411,
  "lon": -17.4200734616
 },
 {
  "id": "243",
  "name": "Dane Birame Ndao",
  "type": "poste de sante",
  "region": "Dakar",
  "lat": 14.85,
  "lon": -17.1858
 },
 {
  "id": "244",
  "name": "Dangou",
  "type": "poste de sante",
  "region": "Dakar",
  "lat": 14.7267316284,
  "lon": -17.2718302211
 },
 {
  "id": "245",
  "name": "Dangou Sud",
  "type": "poste de sante",
  "region": "Dakar",
  "lat": 14.7231,
  "lon": -17.2711
 },
 {
  "id": "247",
  "name": "Dansokho",
  "type": "poste de sante",
  "region": "Dakar",
  "lat": 14.75219,
  "lon": -17.43648
 },
 {
  "id": "250",
  "name": "Darou Khoudoss",
  "type": "poste de sante",
  "region": "Dakar",
  "lat": 14.7644607062,
  "lon": -17.3972959475
 },
 {
  "id": "251",
  "name": "Darou Salam",
  "type": "poste de sante",
  "region": "Dakar",
  "lat": 14.77693064,
  "lon": -17.35645723
 },
 {
  "id": "253",
  "name": "Daroukhane",
  "type": "poste de sante",
  "region": "Dakar",
  "lat": 14.7844903994,
  "lon": -17.375710588
 },
 {
  "id": "254",
  "name": "Darourakhmane",
  "type": "poste de sante",
  "region": "Dakar",
  "lat": 14.782679646,
  "lon": -17.3703769824
 },
 {
  "id": "256",
  "name": "Deggo",
  "type": "poste de sante",
  "region": "Dakar",
  "lat": 14.7699478396,
  "lon": -17.3788065425
 },
 {
  "id": "258",
  "name": "Denes",
  "type": "poste de sante",
  "region": "Dakar",
  "lat": 14.8471613901,
  "lon": -17.1760581484
 },
 {
  "id": "259",
  "name": "Albert Royer",
  "type": "hopital",
  "region": "Dakar",
  "lat": 14.69296,
  "lon": -17.46465
 },
 {
  "id": "262",
  "name": "Derkle",
  "type": "poste de sante",
  "region": "Dakar",
  "lat": 14.7269551617,
  "lon": -17.4556487926
 },
 {
  "id": "263",
  "name": "Diacksao",
  "type": "poste de sante",
  "region": "Dakar",
  "lat": 14.7465615575,
  "lon": -17.3678284006
 },
 {
  "id": "267",
  "name": "Diamalaye",
  "type": "poste de sante",
  "region": "Dakar",
  "lat": 14.7610982761,
  "lon": -17.451842287
 },
 {
  "id": "268",
  "name": "Diame",
  "type": "poste de sante",
  "region": "Dakar",
  "lat": 14.68705,
  "lon": -17.45592
 },
 {
  "id": "270",
  "name": "Diamegueune",
  "type": "poste de sante",
  "region": "Dakar",
  "lat": 14.7469986695,
  "lon": -17.3616907084
 },
 {
  "id": "271",
  "name": "Diamniadio",
  "type": "centre de sante",
  "region": "Dakar",
  "lat": 14.7190349137,
  "lon": -17.1833802796
 },
 {
  "id": "275",
  "name": "Diokoul Kher",
  "type": "poste de sante",
  "region": "Dakar",
  "lat": 14.7183136966,
  "lon": -17.2859641291
 },
 {
  "id": "276",
  "name": "Diokoul Wague",
  "type": "poste de sante",
  "region": "Dakar",
  "lat": 14.7136851271,
  "lon": -17.284162819
 },
 {
  "id": "277",
  "name": "Diop",
  "type": "poste de sante",
  "region": "Dakar",
  "lat": 14.75118,
  "lon": -17.47267
 },
 {
  "id": "278",
  "name": "Diorga",
  "type": "poste de sante",
  "region": "Dakar",
  "lat": 14.7257189602,
  "lon": -17.2639726116
 },
 {
  "id": "279",
  "name": "Djenabou Diop",
  "type": "poste de sante",
  "region": "Dakar",
  "lat": 14.70278,
  "lon": -17.47347
 },
 {
  "id": "283",
  "name": "Docteur Gorgui Diaw",
  "type": "poste de sante",
  "region": "Dakar",
  "lat": 14.727117,
  "lon": -17.460717
 },
 {
  "id": "286",
  "name": "Dominique",
  "type": "centre de sante",
  "region": "Dakar",
  "lat": 14.7561436195,
  "lon": -17.3962481661
 },
 {
  "id": "290",
  "name": "Dougar",
  "type": "poste de sante",
  "region": "Dakar",
  "lat": 14.714936694,
  "lon": -17.1548567645
 },
 {
  "id": "291",
  "name": "Dpc Centre Medico Social De Goree",
  "type": "poste de sante",
  "region": "Dakar",
  "lat": 14.666793,
  "lon": -17.398234
 },
 {
  "id": "292",
  "name": "Dpc Charles De Foucauld A La Sicap Baobab",
  "type": "poste de sante",
  "region": "Dakar",
  "lat": 14.7102239118,
  "lon": -17.463677873
 },
 {
  "id": "293",
  "name": "Dpc Keur Yaakaar",
  "type": "poste de sante",
  "region": "Dakar",
  "lat": 14.7388668963,
  "lon": -17.4568482261
 },
 {
  "id": "294",
  "name": "Dpc Leopold De Yeumbeul",
  "type": "poste de sante",
  "region": "Dakar",
  "lat": 14.77589,
  "lon": -17.35279
 },
 {
  "id": "295",
  "name": "Dpc Pepiniere",
  "type": "poste de sante",
  "region": "Dakar",
  "lat": 14.7595807657,
  "lon": -17.388293326
 },
 {
  "id": "296",
  "name": "Dpc Pouponniere",
  "type": "poste de sante",
  "region": "Dakar",
  "lat": 14.685334,
  "lon": -17.456113
 },
 {
  "id": "298",
  "name": "Dpc Saint Martin + Cren",
  "type": "poste de sante",
  "region": "Dakar",
  "lat": 14.6724693336,
  "lon": -17.4434904162
 },
 {
  "id": "302",
  "name": "Du Centre Baptiste",
  "type": "centre de sante",
  "region": "Dakar",
  "lat": 14.73693614,
  "lon": -17.44435113
 },
 {
  "id": "304",
  "name": "Du Sport Dramane Konate",
  "type": "centre de sante",
  "region": "Dakar",
  "lat": 14.668067,
  "lon": -17.433017
 },
 {
  "id": "316",
  "name": "El Hadji Moustapha Gueye",
  "type": "poste de sante",
  "region": "Dakar",
  "lat": 14.74674548,
  "lon": -17.36776811
 },
 {
  "id": "320",
  "name": "Elisabeth Diouf",
  "type": "centre de sante",
  "region": "Dakar",
  "lat": 14.6810284228,
  "lon": -17.4538768527
 },
 {
  "id": "326",
  "name": "Fann",
  "type": "hopital",
  "region": "Dakar",
  "lat": 14.693883,
  "lon": -17.464783
 },
 {
  "id": "327",
  "name": "Fann Hock",
  "type": "centre de sante",
  "region": "Dakar",
  "lat": 14.6821505289,
  "lon": -17.4618016634
 },
 {
  "id": "332",
  "name": "Fass",
  "type": "poste de sante",
  "region": "Dakar",
  "lat": 14.7270175159,
  "lon": -17.2764409317
 },
 {
  "id": "333",
  "name": "Fass",
  "type": "poste de sante",
  "region": "Dakar",
  "lat": 14.694664,
  "lon": -17.449669
 },
 {
  "id": "334",
  "name": "Fass Mbao",
  "type": "poste de sante",
  "region": "Dakar",
  "lat": 14.7602622909,
  "lon": -17.3478277021
 },
 {
  "id": "338",
  "name": "Fatou Ba",
  "type": "poste de sante",
  "region": "Dakar",
  "lat": 14.7735440424,
  "lon": -17.3104498457
 },
 {
  "id": "340",
  "name": "Fatou Ndoye",
  "type": "poste de sante",
  "region": "Dakar",
  "lat": 14.66766,
  "lon": -17.43441
 },
 {
  "id": "347",
  "name": "Fith Mith",
  "type": "poste de sante",
  "region": "Dakar",
  "lat": 14.7746056175,
  "lon": -17.404401674
 },
 {
  "id": "349",
  "name": "Fonds Islamique",
  "type": "poste de sante",
  "region": "Dakar",
  "lat": 14.7535333207,
  "lon": -17.4468056447
 },
 {
  "id": "355",
  "name": "Gallo Dia",
  "type": "poste de sante",
  "region": "Dakar",
  "lat": 14.7670892134,
  "lon": -17.3673430575
 },
 {
  "id": "356",
  "name": "Gaspard Camara",
  "type": "centre de sante",
  "region": "Dakar",
  "lat": 14.7014810218,
  "lon": -17.4581460279
 },
 {
  "id": "357",
  "name": "Gazy",
  "type": "hopital",
  "region": "Dakar",
  "lat": 14.75136,
  "lon": -17.40081
 },
 {
  "id": "358",
  "name": "Gendermerie Colobane",
  "type": "centre de sante",
  "region": "Dakar",
  "lat": 14.68982,
  "lon": -17.44585
 },
 {
  "id": "360",
  "name": "Georges Lahoud",
  "type": "poste de sante",
  "region": "Dakar",
  "lat": 14.70145177,
  "lon": -17.45556343
 },
 {
  "id": "363",
  "name": "Ghazy Yahya",
  "type": "poste de sante",
  "region": "Dakar",
  "lat": 14.75376,
  "lon": -17.39153
 },
 {
  "id": "365",
  "name": "Golfe Sud",
  "type": "poste de sante",
  "region": "Dakar",
  "lat": 14.7664272051,
  "lon": -17.4129549464
 },
 {
  "id": "366",
  "name": "Goree",
  "type": "poste de sante",
  "region": "Dakar",
  "lat": 14.674,
  "lon": -17.422
 },
 {
  "id": "367",
  "name": "Gorom 1",
  "type": "poste de sante",
  "region": "Dakar",
  "lat": 14.820663893,
  "lon": -17.1524401778
 },
 {
  "id": "368",
  "name": "Gouye Mouride",
  "type": "poste de sante",
  "region": "Dakar",
  "lat": 14.7118012946,
  "lon": -17.2549592229
 },
 {
  "id": "369",
  "name": "Grand Dakar",
  "type": "centre de sante",
  "region": "Dakar",
  "lat": 14.705914755,
  "lon": -17.4538102431
 },
 {
  "id": "370",
  "name": "Grand Mbao",
  "type": "poste de sante",
  "region": "Dakar",
  "lat": 14.7316865705,
  "lon": -17.3205213252
 },
 {
  "id": "371",
  "name": "Grand Medine",
  "type": "poste de sante",
  "region": "Dakar",
  "lat": 14.7476999673,
  "lon": -17.4490004521
 },
 {
  "id": "372",
  "name": "Grand Yoff 1",
  "type": "poste de sante",
  "region": "Dakar",
  "lat": 14.7416589291,
  "lon": -17.442663043
 },
 {
  "id": "373",
  "name": "Idrissa Pouye De Grand Yoff",
  "type": "hopital",
  "region": "Dakar",
  "lat": 14.7317,
  "lon": -17.4447
 },
 {
  "id": "374",
  "name": "Grand Yoff 2",
  "type": "poste de sante",
  "region": "Dakar",
  "lat": 14.7364119184,
  "lon": -17.4512971931
 },
 {
  "id": "375",
  "name": "Grands Moulins",
  "type": "poste de sante",
  "region": "Dakar",
  "lat": 14.69404,
  "lon": -17.4313
 },
 {
  "id": "376",
  "name": "Guinaw Rail Nord",
  "type": "poste de sante",
  "region": "Dakar",
  "lat": 14.7505178973,
  "lon": -17.3838693828
 },
 {
  "id": "377",
  "name": "Guinaw Rail Sud",
  "type": "poste de sante",
  "region": "Dakar",
  "lat": 14.749081966,
  "lon": -17.3913677925
 },
 {
  "id": "384",
  "name": "Hamo 5",
  "type": "poste de sante",
  "region": "Dakar",
  "lat": 14.7820133945,
  "lon": -17.386716141
 },
 {
  "id": "385",
  "name": "Hamo Tefess",
  "type": "poste de sante",
  "region": "Dakar",
  "lat": 14.7794749461,
  "lon": -17.3969369473
 },
 {
  "id": "386",
  "name": "Hann Mariste",
  "type": "centre de sante",
  "region": "Dakar",
  "lat": 14.7344144637,
  "lon": -17.4262671566
 },
 {
  "id": "387",
  "name": "Hann Mer",
  "type": "centre de sante",
  "region": "Dakar",
  "lat": 14.7250067647,
  "lon": -17.4294103621
 },
 {
  "id": "388",
  "name": "Hann Mer",
  "type": "poste de sante",
  "region": "Dakar",
  "lat": 14.7332677219,
  "lon": -17.419363918
 },
 {
  "id": "389",
  "name": "Hann Village",
  "type": "poste de sante",
  "region": "Dakar",
  "lat": 14.7196096576,
  "lon": -17.4339135105
 },
 {
  "id": "394",
  "name": "Hlm",
  "type": "centre de sante",
  "region": "Dakar",
  "lat": 14.7088254467,
  "lon": -17.4420786138
 },
 {
  "id": "395",
  "name": "Hlm",
  "type": "poste de sante",
  "region": "Dakar",
  "lat": 14.7300330142,
  "lon": -17.2840938241
 },
 {
  "id": "396",
  "name": "Hlm",
  "type": "poste de sante",
  "region": "Dakar",
  "lat": 14.716716025,
  "lon": -17.4446345077
 },
 {
  "id": "397",
  "name": "Hlm Fass",
  "type": "poste de sante",
  "region": "Dakar",
  "lat": 14.6947768858,
  "lon": -17.4507817322
 },
 {
  "id": "398",
  "name": "Hlm Grand Yoff",
  "type": "poste de sante",
  "region": "Dakar",
  "lat": 14.7427257046,
  "lon": -17.4529490582
 },
 {
  "id": "399",
  "name": "Hlm Las Palmas",
  "type": "poste de sante",
  "region": "Dakar",
  "lat": 14.7699,
  "lon": -17.4063
 },
 {
  "id": "400",
  "name": "Hmo",
  "type": "hopital",
  "region": "Dakar",
  "lat": 14.71545,
  "lon": -17.48129
 },
 {
  "id": "403",
  "name": "Hoggy",
  "type": "hopital",
  "region": "Dakar",
  "lat": 14.73205,
  "lon": -17.4454
 },
 {
  "id": "410",
  "name": "Ibrahima Mamadou Ba",
  "type": "poste de sante",
  "region": "Dakar",
  "lat": 14.69790103,
  "lon": -17.4446916
 },
 {
  "id": "415",
  "name": "Ics",
  "type": "poste de sante",
  "region": "Dakar",
  "lat": 14.74204,
  "lon": -17.34198
 },
 {
  "id": "419",
  "name": "Infirmerie Camp Militaire",
  "type": "centre de sante",
  "region": "Dakar",
  "lat": 14.69979,
  "lon": -17.23496
 },
 {
  "id": "422",
  "name": "Institut Hygiene Sociale",
  "type": "hopital",
  "region": "Dakar",
  "lat": 14.6784432448,
  "lon": -17.4456335971
 },
 {
  "id": "423",
  "name": "Institut De Pediatrie Sociale",
  "type": "poste de sante",
  "region": "Dakar",
  "lat": 14.7688262583,
  "lon": -17.3888842408
 },
 {
  "id": "434",
  "name": "Jaxaay",
  "type": "poste de sante",
  "region": "Dakar",
  "lat": 14.7698781374,
  "lon": -17.2810214322
 },
 {
  "id": "440",
  "name": "Karim Ndiogou Ndiaye",
  "type": "poste de sante",
  "region": "Dakar",
  "lat": 14.66621349,
  "lon": -17.43701897
 },
 {
  "id": "443",
  "name": "Keur Javouhey",
  "type": "poste de sante",
  "region": "Dakar",
  "lat": 14.7275181667,
  "lon": -17.4546447866
 },
 {
  "id": "444",
  "name": "Keur Massar",
  "type": "centre de sante",
  "region": "Dakar",
  "lat": 14.778318765,
  "lon": -17.3215409745
 },
 {
  "id": "445",
  "name": "Keur Massar Village",
  "type": "poste de sante",
  "region": "Dakar",
  "lat": 14.7843482546,
  "lon": -17.308683861
 },
 {
  "id": "446",
  "name": "Keur Ndiaye Lo",
  "type": "poste de sante",
  "region": "Dakar",
  "lat": 14.743928508,
  "lon": -17.2423464585
 },
 {
  "id": "447",
  "name": "Keur Souleye",
  "type": "poste de sante",
  "region": "Dakar",
  "lat": 14.71990445,
  "lon": -17.26622722
 },
 {
  "id": "449",
  "name": "Keury Souf",
  "type": "poste de sante",
  "region": "Dakar",
  "lat": 14.7158707523,
  "lon": -17.2777913604
 },
 {
  "id": "453",
  "name": "Khadim Rassoul",
  "type": "centre de sante",
  "region": "Dakar",
  "lat": 14.750133,
  "lon": -17.3527
 },
 {
  "id": "457",
  "name": "Khar Yalla",
  "type": "poste de sante",
  "region": "Dakar",
  "lat": 14.7300712583,
  "lon": -17.4541547802
 },
 {
  "id": "458",
  "name": "Khourounar",
  "type": "poste de sante",
  "region": "Dakar",
  "lat": 14.7488337124,
  "lon": -17.4032872354
 },
 {
  "id": "459",
  "name": "Kip Carrieres",
  "type": "poste de sante",
  "region": "Dakar",
  "lat": 14.7032511514,
  "lon": -17.2334663361
 },
 {
  "id": "462",
  "name": "Kounoune",
  "type": "poste de sante",
  "region": "Dakar",
  "lat": 14.7543791553,
  "lon": -17.2549343393
 },
 {
  "id": "465",
  "name": "La Reproduction",
  "type": "centre de sante",
  "region": "Dakar",
  "lat": 14.69793665,
  "lon": -17.45910076
 },
 {
  "id": "466",
  "name": "La Rochette",
  "type": "poste de sante",
  "region": "Dakar",
  "lat": 14.7561028082,
  "lon": -17.3684282742
 },
 {
  "id": "467",
  "name": "La Sante Mame-Louise-Gomis",
  "type": "poste de sante",
  "region": "Dakar",
  "lat": 14.66728898,
  "lon": -17.39717375
 },
 {
  "id": "471",
  "name": "Lansar",
  "type": "centre de sante",
  "region": "Dakar",
  "lat": 14.76575,
  "lon": -17.39269
 },
 {
  "id": "472",
  "name": "Las Palmas",
  "type": "poste de sante",
  "region": "Dakar",
  "lat": 14.7701915003,
  "lon": -17.4065262532
 },
 {
  "id": "477",
  "name": "Lgi Mbao",
  "type": "centre de sante",
  "region": "Dakar",
  "lat": 14.75102,
  "lon": -17.34725
 },
 {
  "id": "478",
  "name": "Liberte 2",
  "type": "poste de sante",
  "region": "Dakar",
  "lat": 14.7132447676,
  "lon": -17.4613537078
 },
 {
  "id": "479",
  "name": "Liberte 4",
  "type": "poste de sante",
  "region": "Dakar",
  "lat": 14.7192788035,
  "lon": -17.4610407409
 },
 {
  "id": "480",
  "name": "Liberte 6",
  "type": "poste de sante",
  "region": "Dakar",
  "lat": 14.7281406015,
  "lon": -17.45912948
 },
 {
  "id": "481",
  "name": "Liberte 6",
  "type": "centre de sante",
  "region": "Dakar",
  "lat": 14.7299636266,
  "lon": -17.4706864161
 },
 {
  "id": "489",
  "name": "Madeleine",
  "type": "hopital",
  "region": "Dakar",
  "lat": 14.65955,
  "lon": -17.43799
 },
 {
  "id": "497",
  "name": "Maimouna",
  "type": "centre de sante",
  "region": "Dakar",
  "lat": 14.7243480887,
  "lon": -17.2832409261
 },
 {
  "id": "500",
  "name": "Majdi Kaouk",
  "type": "poste de sante",
  "region": "Dakar",
  "lat": 14.66535,
  "lon": -17.43563
 },
 {
  "id": "505",
  "name": "Malick Sy",
  "type": "hopital",
  "region": "Dakar",
  "lat": 14.71644,
  "lon": -17.45722
 },
 {
  "id": "506",
  "name": "Malika",
  "type": "poste de sante",
  "region": "Dakar",
  "lat": 14.7919207069,
  "lon": -17.3400228794
 },
 {
  "id": "507",
  "name": "Malika Sonatel",
  "type": "poste de sante",
  "region": "Dakar",
  "lat": 14.78833709,
  "lon": -17.3368121442
 },
 {
  "id": "517",
  "name": "Mame Dior",
  "type": "poste de sante",
  "region": "Dakar",
  "lat": 14.7686740819,
  "lon": -17.309659749
 },
 {
  "id": "521",
  "name": "Mamelles",
  "type": "centre de sante",
  "region": "Dakar",
  "lat": 14.72739,
  "lon": -17.50282
 },
 {
  "id": "533",
  "name": "Marine",
  "type": "centre de sante",
  "region": "Dakar",
  "lat": 14.6781429701,
  "lon": -17.4340406995
 },
 {
  "id": "539",
  "name": "Maternite Bargny",
  "type": "poste de sante",
  "region": "Dakar",
  "lat": 14.69363,
  "lon": -17.2286
 },
 {
  "id": "541",
  "name": "Maternite Dalifort",
  "type": "poste de sante",
  "region": "Dakar",
  "lat": 14.7406613342,
  "lon": -17.4175440591
 },
 {
  "id": "544",
  "name": "Maternite Elisabeth",
  "type": "poste de sante",
  "region": "Dakar",
  "lat": 14.7649936933,
  "lon": -17.4178006726
 },
 {
  "id": "545",
  "name": "Maternite Grand Mbao",
  "type": "poste de sante",
  "region": "Dakar",
  "lat": 14.73136,
  "lon": -17.32074
 },
 {
  "id": "548",
  "name": "Maternite Mame Dior",
  "type": "poste de sante",
  "region": "Dakar",
  "lat": 14.7987,
  "lon": -17.30964
 },
 {
  "id": "550",
  "name": "Maternite Sebikotane",
  "type": "poste de sante",
  "region": "Dakar",
  "lat": 14.74461,
  "lon": -17.14055
 },
 {
  "id": "555",
  "name": "Mbao Gare",
  "type": "poste de sante",
  "region": "Dakar",
  "lat": 14.7432138902,
  "lon": -17.3157456807
 },
 {
  "id": "565",
  "name": "Medical Hippocrate",
  "type": "poste de sante",
  "region": "Dakar",
  "lat": 14.72864,
  "lon": -17.49984
 },
 {
  "id": "566",
  "name": "Medical Nancy Francisca Senghor",
  "type": "poste de sante",
  "region": "Dakar",
  "lat": 14.720014,
  "lon": -17.460027
 },
 {
  "id": "573",
  "name": "Medina Gounass",
  "type": "poste de sante",
  "region": "Dakar",
  "lat": 14.7702994495,
  "lon": -17.3851166234
 },
 {
  "id": "574",
  "name": "Medina Thioub",
  "type": "poste de sante",
  "region": "Dakar",
  "lat": 14.7744380622,
  "lon": -17.2662044966
 },
 {
  "id": "575",
  "name": "Mermoz",
  "type": "poste de sante",
  "region": "Dakar",
  "lat": 14.7016372298,
  "lon": -17.4696164848
 },
 {
  "id": "577",
  "name": "Militaire De Ouakam",
  "type": "hopital",
  "region": "Dakar",
  "lat": 14.715633422,
  "lon": -17.4813867574
 },
 {
  "id": "578",
  "name": "Miname",
  "type": "poste de sante",
  "region": "Dakar",
  "lat": 14.68151374,
  "lon": -17.21674834
 },
 {
  "id": "580",
  "name": "Missirah",
  "type": "poste de sante",
  "region": "Dakar",
  "lat": 14.6941010382,
  "lon": -17.2245348256
 },
 {
  "id": "614",
  "name": "Municipal 1",
  "type": "poste de sante",
  "region": "Dakar",
  "lat": 14.7630652986,
  "lon": -17.3919756
 },
 {
  "id": "615",
  "name": "Municipal 2",
  "type": "poste de sante",
  "region": "Dakar",
  "lat": 14.7482344272,
  "lon": -17.3958478798
 },
 {
  "id": "616",
  "name": "Municipal 4",
  "type": "poste de sante",
  "region": "Dakar",
  "lat": 14.7777911686,
  "lon": -17.3870155193
 },
 {
  "id": "617",
  "name": "Municipal De Ouakam",
  "type": "centre de sante",
  "region": "Dakar",
  "lat": 14.7204771412,
  "lon": -17.4913566007
 },
 {
  "id": "619",
  "name": "Nabil Choucair",
  "type": "centre de sante",
  "region": "Dakar",
  "lat": 14.7438686168,
  "lon": -17.444186464
 },
 {
  "id": "620",
  "name": "Nabou",
  "type": "centre de sante",
  "region": "Dakar",
  "lat": 14.7137017802,
  "lon": -17.2710569115
 },
 {
  "id": "624",
  "name": "Nassroulaye",
  "type": "poste de sante",
  "region": "Dakar",
  "lat": 14.7588434569,
  "lon": -17.3619376165
 },
 {
  "id": "631",
  "name": "Ndeye Magatte Ndiaye",
  "type": "poste de sante",
  "region": "Dakar",
  "lat": 14.66787227,
  "lon": -17.43787854
 },
 {
  "id": "637",
  "name": "Ndiaye Diouf",
  "type": "poste de sante",
  "region": "Dakar",
  "lat": 14.6935512194,
  "lon": -17.2285875114
 },
 {
  "id": "639",
  "name": "Ndiolmane",
  "type": "poste de sante",
  "region": "Dakar",
  "lat": 14.6957284052,
  "lon": -17.2377135489
 },
 {
  "id": "640",
  "name": "Ndoukhoura",
  "type": "poste de sante",
  "region": "Dakar",
  "lat": 14.6852113012,
  "lon": -17.1634591138
 },
 {
  "id": "641",
  "name": "Ndoyenne",
  "type": "poste de sante",
  "region": "Dakar",
  "lat": 14.7663382233,
  "lon": -17.1492348928
 },
 {
  "id": "642",
  "name": "Ngor",
  "type": "centre de sante",
  "region": "Dakar",
  "lat": 14.7461572717,
  "lon": -17.5136848243
 },
 {
  "id": "643",
  "name": "Niacourab",
  "type": "poste de sante",
  "region": "Dakar",
  "lat": 14.7846973284,
  "lon": -17.2730493596
 },
 {
  "id": "644",
  "name": "Niague",
  "type": "poste de sante",
  "region": "Dakar",
  "lat": 14.8107005313,
  "lon": -17.2510811011
 },
 {
  "id": "646",
  "name": "Niang",
  "type": "centre de sante",
  "region": "Dakar",
  "lat": 14.6921662,
  "lon": -17.447270322
 },
 {
  "id": "647",
  "name": "Niangal",
  "type": "poste de sante",
  "region": "Dakar",
  "lat": 14.6276587822,
  "lon": -17.1608465372
 },
 {
  "id": "650",
  "name": "Nimzath",
  "type": "poste de sante",
  "region": "Dakar",
  "lat": 14.7758451056,
  "lon": -17.3713692322
 },
 {
  "id": "651",
  "name": "Nimzath",
  "type": "poste de sante",
  "region": "Dakar",
  "lat": 14.724451809,
  "lon": -17.2811061882
 },
 {
  "id": "652",
  "name": "Youssou Mbargane Diop",
  "type": "hopital",
  "region": "Dakar",
  "lat": 14.7259820443,
  "lon": -17.2595288529
 },
 {
  "id": "653",
  "name": "Norade",
  "type": "poste de sante",
  "region": "Dakar",
  "lat": 14.7557331292,
  "lon": -17.4462965979
 },
 {
  "id": "654",
  "name": "Notre Dame De L'Esperance",
  "type": "poste de sante",
  "region": "Dakar",
  "lat": 14.76127459,
  "lon": -17.3805661
 },
 {
  "id": "655",
  "name": "Notre Dame De La Joie",
  "type": "poste de sante",
  "region": "Dakar",
  "lat": 14.772752409,
  "lon": -17.3949099985
 },
 {
  "id": "658",
  "name": "Ohg",
  "type": "centre de sante",
  "region": "Dakar",
  "lat": 14.73617892,
  "lon": -17.47228298
 },
 {
  "id": "660",
  "name": "Ouakam",
  "type": "poste de sante",
  "region": "Dakar",
  "lat": 14.7272688615,
  "lon": -17.4861522682
 },
 {
  "id": "671",
  "name": "Pa Km  Unite 12",
  "type": "poste de sante",
  "region": "Dakar",
  "lat": 14.7761822519,
  "lon": -17.3290126878
 },
 {
  "id": "684",
  "name": "Parcelle Assainie Keur Massar",
  "type": "poste de sante",
  "region": "Dakar",
  "lat": 14.7825,
  "lon": -17.3112
 },
 {
  "id": "685",
  "name": "Parcelles Assainies",
  "type": "centre de sante",
  "region": "Dakar",
  "lat": 14.75743,
  "lon": -17.43824
 },
 {
  "id": "686",
  "name": "Parcelles S. Nationaux",
  "type": "poste de sante",
  "region": "Dakar",
  "lat": 14.6554,
  "lon": -17.4748
 },
 {
  "id": "687",
  "name": "Parcs Nationaux",
  "type": "centre de sante",
  "region": "Dakar",
  "lat": 14.72316,
  "lon": -17.43631
 },
 {
  "id": "688",
  "name": "Pasteur",
  "type": "hopital",
  "region": "Dakar",
  "lat": 14.66782,
  "lon": -17.43438
 },
 {
  "id": "693",
  "name": "Pediatre Martin",
  "type": "poste de sante",
  "region": "Dakar",
  "lat": 14.6567237442,
  "lon": -17.4362218392
 },
 {
  "id": "695",
  "name": "Petit Mbao",
  "type": "poste de sante",
  "region": "Dakar",
  "lat": 14.7358453235,
  "lon": -17.3332504156
 },
 {
  "id": "698",
  "name": "Philippe Senghor",
  "type": "centre de sante",
  "region": "Dakar",
  "lat": 14.7561086235,
  "lon": -17.4735127356
 },
 {
  "id": "702",
  "name": "Pikine",
  "type": "hopital",
  "region": "Dakar",
  "lat": 14.75423,
  "lon": -17.3764
 },
 {
  "id": "703",
  "name": "Plateau",
  "type": "centre de sante",
  "region": "Dakar",
  "lat": 14.6785458631,
  "lon": -17.4418731051
 },
 {
  "id": "704",
  "name": "Plateau Medical",
  "type": "poste de sante",
  "region": "Dakar",
  "lat": 14.71818,
  "lon": -17.45967
 },
 {
  "id": "705",
  "name": "Plateau Medical Absa",
  "type": "poste de sante",
  "region": "Dakar",
  "lat": 14.73319563,
  "lon": -17.31822888
 },
 {
  "id": "706",
  "name": "Plateau Medical Espoir",
  "type": "poste de sante",
  "region": "Dakar",
  "lat": 14.73332195,
  "lon": -17.4562111
 },
 {
  "id": "707",
  "name": "Plateau Medical Medina Rue 6",
  "type": "poste de sante",
  "region": "Dakar",
  "lat": 14.67553199,
  "lon": -17.45029432
 },
 {
  "id": "708",
  "name": "Pmi Medina",
  "type": "centre de sante",
  "region": "Dakar",
  "lat": 14.6818940481,
  "lon": -17.4505413493
 },
 {
  "id": "709",
  "name": "Polyclinique",
  "type": "poste de sante",
  "region": "Dakar",
  "lat": 14.71204,
  "lon": -17.2717
 },
 {
  "id": "711",
  "name": "Port Autonome De Dakar",
  "type": "poste de sante",
  "region": "Dakar",
  "lat": 14.672063852,
  "lon": -17.4244393236
 },
 {
  "id": "716",
  "name": "Prive Ousmane Ba",
  "type": "poste de sante",
  "region": "Dakar",
  "lat": 14.7526165,
  "lon": -17.39054384
 },
 {
  "id": "717",
  "name": "Privee Non Lucrative Isra",
  "type": "poste de sante",
  "region": "Dakar",
  "lat": 14.72309,
  "lon": -17.44551
 },
 {
  "id": "718",
  "name": "Psychiatrique De Thiaroye",
  "type": "hopital",
  "region": "Dakar",
  "lat": 14.742967,
  "lon": -17.351833
 },
 {
  "id": "722",
  "name": "Rada",
  "type": "centre de sante",
  "region": "Dakar",
  "lat": 14.7162522621,
  "lon": -17.2743211339
 },
 {
  "id": "724",
  "name": "Raffenel",
  "type": "poste de sante",
  "region": "Dakar",
  "lat": 14.6746510677,
  "lon": -17.4360748377
 },
 {
  "id": "728",
  "name": "Rectorat Universite",
  "type": "poste de sante",
  "region": "Dakar",
  "lat": 14.69036,
  "lon": -17.46348
 },
 {
  "id": "731",
  "name": "Rne Samba Diery Diallo",
  "type": "poste de sante",
  "region": "Dakar",
  "lat": 14.6897117794,
  "lon": -17.4459238867
 },
 {
  "id": "735",
  "name": "Roi Baudoin",
  "type": "hopital",
  "region": "Dakar",
  "lat": 14.7741369497,
  "lon": -17.384583497
 },
 {
  "id": "738",
  "name": "Rufisque",
  "type": "centre de sante",
  "region": "Dakar",
  "lat": 14.7128206336,
  "lon": -17.2714676628
 },
 {
  "id": "742",
  "name": "Saint Laurent",
  "type": "poste de sante",
  "region": "Dakar",
  "lat": 14.6849666031,
  "lon": -17.4442102332
 },
 {
  "id": "747",
  "name": "Samu Grand Yoff",
  "type": "centre de sante",
  "region": "Dakar",
  "lat": 14.73872,
  "lon": -17.46564
 },
 {
  "id": "749",
  "name": "Sandial",
  "type": "poste de sante",
  "region": "Dakar",
  "lat": 14.6691649206,
  "lon": -17.4360499617
 },
 {
  "id": "750",
  "name": "Sangalkam",
  "type": "poste de sante",
  "region": "Dakar",
  "lat": 14.7787671079,
  "lon": -17.2256970327
 },
 {
  "id": "751",
  "name": "Sanoussi Sango",
  "type": "poste de sante",
  "region": "Dakar",
  "lat": 14.69792,
  "lon": -17.44474
 },
 {
  "id": "752",
  "name": "Sant Yalla",
  "type": "poste de sante",
  "region": "Dakar",
  "lat": 14.7620690336,
  "lon": -17.3799820972
 },
 {
  "id": "753",
  "name": "Sar",
  "type": "poste de sante",
  "region": "Dakar",
  "lat": 14.74044,
  "lon": -17.35062
 },
 {
  "id": "755",
  "name": "Sebi Ponty",
  "type": "poste de sante",
  "region": "Dakar",
  "lat": 14.7421976067,
  "lon": -17.1719789269
 },
 {
  "id": "756",
  "name": "Sebikotane",
  "type": "poste de sante",
  "region": "Dakar",
  "lat": 14.7410390342,
  "lon": -17.138626847
 },
 {
  "id": "760",
  "name": "Sendou",
  "type": "poste de sante",
  "region": "Dakar",
  "lat": 14.6729833048,
  "lon": -17.2079816555
 },
 {
  "id": "761",
  "name": "Senelec",
  "type": "poste de sante",
  "region": "Dakar",
  "lat": 14.6738213679,
  "lon": -17.4348399912
 },
 {
  "id": "767",
  "name": "Service D'Hygiene",
  "type": "poste de sante",
  "region": "Dakar",
  "lat": 14.6826598669,
  "lon": -17.4600215344
 },
 {
  "id": "770",
  "name": "Seydina Issa Laye",
  "type": "hopital",
  "region": "Dakar",
  "lat": 14.766159,
  "lon": -17.4302731
 },
 {
  "id": "791",
  "name": "Taif",
  "type": "poste de sante",
  "region": "Dakar",
  "lat": 14.7578477899,
  "lon": -17.3562198578
 },
 {
  "id": "792",
  "name": "Tairou Mbaye",
  "type": "poste de sante",
  "region": "Dakar",
  "lat": 14.74039,
  "lon": -17.31365
 },
 {
  "id": "795",
  "name": "Tawfekh",
  "type": "poste de sante",
  "region": "Dakar",
  "lat": 14.8182321603,
  "lon": -17.2652625102
 },
 {
  "id": "796",
  "name": "Technopole",
  "type": "centre de sante",
  "region": "Dakar",
  "lat": 14.75269764,
  "lon": -17.40473213
 },
 {
  "id": "797",
  "name": "Terme Sud",
  "type": "poste de sante",
  "region": "Dakar",
  "lat": 14.7306299079,
  "lon": -17.484152558
 },
 {
  "id": "798",
  "name": "Tete Diedhiou",
  "type": "poste de sante",
  "region": "Dakar",
  "lat": 14.75970776,
  "lon": -17.43054152
 },
 {
  "id": "803",
  "name": "Thiaroye Azur",
  "type": "poste de sante",
  "region": "Dakar",
  "lat": 14.7404880463,
  "lon": -17.3565831831
 },
 {
  "id": "804",
  "name": "Thiaroye Gare",
  "type": "poste de sante",
  "region": "Dakar",
  "lat": 14.7611812983,
  "lon": -17.3727183678
 },
 {
  "id": "805",
  "name": "Thiaroye Miname",
  "type": "poste de sante",
  "region": "Dakar",
  "lat": 14.7672333202,
  "lon": -17.3712016542
 },
 {
  "id": "806",
  "name": "Thiaroye Sur Mer",
  "type": "poste de sante",
  "region": "Dakar",
  "lat": 14.7420378077,
  "lon": -17.3845827397
 },
 {
  "id": "807",
  "name": "Thiawlene",
  "type": "poste de sante",
  "region": "Dakar",
  "lat": 14.7082633851,
  "lon": -17.260013248
 },
 {
  "id": "814",
  "name": "Tivaoune Peulh",
  "type": "poste de sante",
  "region": "Dakar",
  "lat": 14.8041010801,
  "lon": -17.282807134
 },
 {
  "id": "815",
  "name": "Touba Diacksao",
  "type": "poste de sante",
  "region": "Dakar",
  "lat": 14.7575945526,
  "lon": -17.3892526049
 },
 {
  "id": "819",
  "name": "Traditionel Keur Massar",
  "type": "centre de sante",
  "region": "Dakar",
  "lat": 14.73804573,
  "lon": -17.44914507
 },
 {
  "id": "821",
  "name": "Unite",
  "type": "poste de sante",
  "region": "Dakar",
  "lat": 14.7554,
  "lon": -17.4492
 },
 {
  "id": "822",
  "name": "Unite 16",
  "type": "poste de sante",
  "region": "Dakar",
  "lat": 14.7627541047,
  "lon": -17.4435524086
 },
 {
  "id": "823",
  "name": "Unite 22",
  "type": "poste de sante",
  "region": "Dakar",
  "lat": 14.7513712966,
  "lon": -17.445101649
 },
 {
  "id": "824",
  "name": "Unite 26",
  "type": "poste de sante",
  "region": "Dakar",
  "lat": 14.7536308508,
  "lon": -17.4524189921
 },
 {
  "id": "825",
  "name": "Unite 4",
  "type": "poste de sante",
  "region": "Dakar",
  "lat": 14.7661504672,
  "lon": -17.4216006056
 },
 {
  "id": "826",
  "name": "Unite 8",
  "type": "poste de sante",
  "region": "Dakar",
  "lat": 14.7569991443,
  "lon": -17.4300279974
 },
 {
  "id": "827",
  "name": "Unite 9",
  "type": "poste de sante",
  "region": "Dakar",
  "lat": 14.7633201255,
  "lon": -17.4350977581
 },
 {
  "id": "834",
  "name": "Wakhinane",
  "type": "centre de sante",
  "region": "Dakar",
  "lat": 14.7804070017,
  "lon": -17.3769433732
 },
 {
  "id": "836",
  "name": "Wayembam",
  "type": "poste de sante",
  "region": "Dakar",
  "lat": 14.8228488874,
  "lon": -17.2171882714
 },
 {
  "id": "838",
  "name": "Ya Salam",
  "type": "poste de sante",
  "region": "Dakar",
  "lat": 14.67952957,
  "lon": -17.46202697
 },
 {
  "id": "839",
  "name": "Ya Salam",
  "type": "poste de sante",
  "region": "Dakar",
  "lat": 14.75024752,
  "lon": -17.39403465
 },
 {
  "id": "845",
  "name": "Yare Fall",
  "type": "poste de sante",
  "region": "Dakar",
  "lat": 14.69793,
  "lon": -17.45906
 },
 {
  "id": "848",
  "name": "Yenne",
  "type": "poste de sante",
  "region": "Dakar",
  "lat": 14.640088941,
  "lon": -17.1738185043
 },
 {
  "id": "850",
  "name": "Yeumbeul Ainoumady Sotrac",
  "type": "poste de sante",
  "region": "Dakar",
  "lat": 14.7748,
  "lon": -17.3601
 },
 {
  "id": "851",
  "name": "Yeumbeul Diamalaye",
  "type": "poste de sante",
  "region": "Dakar",
  "lat": 14.7758166791,
  "lon": -17.3617669425
 },
 {
  "id": "852",
  "name": "Yeumbeul Nord",
  "type": "poste de sante",
  "region": "Dakar",
  "lat": 14.7754125907,
  "lon": -17.3596817629
 },
 {
  "id": "853",
  "name": "Yeumbeul Sud",
  "type": "poste de sante",
  "region": "Dakar",
  "lat": 14.7707976744,
  "lon": -17.3629429761
 },
 {
  "id": "854",
  "name": "Yoff",
  "type": "poste de sante",
  "region": "Dakar",
  "lat": 14.7619831976,
  "lon": -17.4758701375
 },
 {
  "id": "859",
  "name": "Zac Mbao",
  "type": "poste de sante",
  "region": "Dakar",
  "lat": 14.7393170671,
  "lon": -17.2984323552
 },
 {
  "id": "861",
  "name": "Aguiyaye",
  "type": "poste de sante",
  "region": "Diourbel",
  "lat": 14.6620022363,
  "lon": -16.5771556261
 },
 {
  "id": "862",
  "name": "Assa Diarra",
  "type": "hopital",
  "region": "Diourbel",
  "lat": 14.8611,
  "lon": -15.88281
 },
 {
  "id": "863",
  "name": "Baba Garage",
  "type": "poste de sante",
  "region": "Diourbel",
  "lat": 14.9389130472,
  "lon": -16.4902681808
 },
 {
  "id": "864",
  "name": "Bacfasagal",
  "type": "case de sante",
  "region": "Diourbel",
  "lat": 14.59429,
  "lon": -16.3003
 },
 {
  "id": "865",
  "name": "Bakhdad",
  "type": "case de sante",
  "region": "Diourbel",
  "lat": 14.91275,
  "lon": -15.86175
 },
 {
  "id": "866",
  "name": "Bambay Serere",
  "type": "poste de sante",
  "region": "Diourbel",
  "lat": 14.7128805557,
  "lon": -16.4989229953
 },
 {
  "id": "867",
  "name": "Bambey",
  "type": "centre de sante",
  "region": "Diourbel",
  "lat": 14.7006968568,
  "lon": -16.4555249932
 },
 {
  "id": "868",
  "name": "Banane",
  "type": "case de sante",
  "region": "Diourbel",
  "lat": 14.75817,
  "lon": -15.59981
 },
 {
  "id": "870",
  "name": "Bayla",
  "type": "case de sante",
  "region": "Diourbel",
  "lat": 14.78835,
  "lon": -15.71843
 },
 {
  "id": "871",
  "name": "Bombaly",
  "type": "case de sante",
  "region": "Diourbel",
  "lat": 14.75396,
  "lon": -15.75217
 },
 {
  "id": "872",
  "name": "Boukhatoul Moubarak",
  "type": "poste de sante",
  "region": "Diourbel",
  "lat": 14.87812,
  "lon": -15.93008
 },
 {
  "id": "875",
  "name": "Centre Medical Universitaire De Bambey",
  "type": "centre de sante",
  "region": "Diourbel",
  "lat": 14.70165503,
  "lon": -16.45470862
 },
 {
  "id": "876",
  "name": "Ceytu",
  "type": "poste de sante",
  "region": "Diourbel",
  "lat": 14.9348470979,
  "lon": -16.408177426
 },
 {
  "id": "878",
  "name": "Cheikh Anta",
  "type": "poste de sante",
  "region": "Diourbel",
  "lat": 14.660542892,
  "lon": -16.2422633081
 },
 {
  "id": "880",
  "name": "Cocky Gouye",
  "type": "case de sante",
  "region": "Diourbel",
  "lat": 14.94167,
  "lon": -16.1846
 },
 {
  "id": "881",
  "name": "Croix Rouge",
  "type": "poste de sante",
  "region": "Diourbel",
  "lat": 14.7957893255,
  "lon": -15.9145607491
 },
 {
  "id": "882",
  "name": "Croix Rouge",
  "type": "poste de sante",
  "region": "Diourbel",
  "lat": 14.693289535,
  "lon": -16.4575955912
 },
 {
  "id": "883",
  "name": "Croix Rouge",
  "type": "poste de sante",
  "region": "Diourbel",
  "lat": 14.6639809154,
  "lon": -16.227935857
 },
 {
  "id": "884",
  "name": "Dalla Ngabou",
  "type": "poste de sante",
  "region": "Diourbel",
  "lat": 14.7693889423,
  "lon": -16.0116736796
 },
 {
  "id": "885",
  "name": "Dangalma",
  "type": "poste de sante",
  "region": "Diourbel",
  "lat": 14.7233696084,
  "lon": -16.5660635681
 },
 {
  "id": "886",
  "name": "Dankh Sene",
  "type": "poste de sante",
  "region": "Diourbel",
  "lat": 14.8383964362,
  "lon": -16.1431265999
 },
 {
  "id": "887",
  "name": "Touba",
  "type": "centre de sante",
  "region": "Diourbel",
  "lat": 14.8876738535,
  "lon": -15.893443749
 },
 {
  "id": "888",
  "name": "Darou Khoudoss",
  "type": "centre de sante",
  "region": "Diourbel",
  "lat": 14.875145358,
  "lon": -15.8822914366
 },
 {
  "id": "889",
  "name": "Darou Marnane",
  "type": "poste de sante",
  "region": "Diourbel",
  "lat": 14.8337196793,
  "lon": -15.890007365
 },
 {
  "id": "890",
  "name": "Darou Minam",
  "type": "centre de sante",
  "region": "Diourbel",
  "lat": 14.8473876944,
  "lon": -15.9064374572
 },
 {
  "id": "891",
  "name": "Darou Nahim",
  "type": "poste de sante",
  "region": "Diourbel",
  "lat": 14.7351127984,
  "lon": -15.9910015357
 },
 {
  "id": "892",
  "name": "Darou Rahmane",
  "type": "poste de sante",
  "region": "Diourbel",
  "lat": 14.8165182633,
  "lon": -15.8375912016
 },
 {
  "id": "893",
  "name": "Darou Salam",
  "type": "poste de sante",
  "region": "Diourbel",
  "lat": 14.8116896698,
  "lon": -15.8922510695
 },
 {
  "id": "894",
  "name": "Darou Tansil",
  "type": "poste de sante",
  "region": "Diourbel",
  "lat": 14.8480018475,
  "lon": -15.9213924854
 },
 {
  "id": "895",
  "name": "Dendeye Gouyegui",
  "type": "poste de sante",
  "region": "Diourbel",
  "lat": 14.7217228422,
  "lon": -16.0326380358
 },
 {
  "id": "898",
  "name": "Diamaguene",
  "type": "poste de sante",
  "region": "Diourbel",
  "lat": 14.7871945073,
  "lon": -15.9050274551
 },
 {
  "id": "899",
  "name": "Digane",
  "type": "poste de sante",
  "region": "Diourbel",
  "lat": 14.7923844064,
  "lon": -15.9847705125
 },
 {
  "id": "900",
  "name": "Dinguiraye",
  "type": "poste de sante",
  "region": "Diourbel",
  "lat": 14.9731954669,
  "lon": -16.4300736831
 },
 {
  "id": "901",
  "name": "Diomkhel",
  "type": "case de sante",
  "region": "Diourbel",
  "lat": 14.64606,
  "lon": -16.30936
 },
 {
  "id": "902",
  "name": "Diourbel",
  "type": "centre de sante",
  "region": "Diourbel",
  "lat": 14.6539122449,
  "lon": -16.2364136219
 },
 {
  "id": "904",
  "name": "Douy Sangou",
  "type": "case de sante",
  "region": "Diourbel",
  "lat": 14.753002,
  "lon": -15.978869
 },
 {
  "id": "905",
  "name": "Doyoly",
  "type": "poste de sante",
  "region": "Diourbel",
  "lat": 14.6566239132,
  "lon": -16.0511880029
 },
 {
  "id": "906",
  "name": "Dpc De Bambey",
  "type": "poste de sante",
  "region": "Diourbel",
  "lat": 14.69856,
  "lon": -16.45776
 },
 {
  "id": "907",
  "name": "Dpc Diourbel Tock",
  "type": "poste de sante",
  "region": "Diourbel",
  "lat": 14.6378347907,
  "lon": -16.225517426
 },
 {
  "id": "908",
  "name": "Dpc Ngohe",
  "type": "poste de sante",
  "region": "Diourbel",
  "lat": 14.628388185,
  "lon": -16.294322503
 },
 {
  "id": "909",
  "name": "Gade Escale",
  "type": "poste de sante",
  "region": "Diourbel",
  "lat": 14.9094723435,
  "lon": -16.3513113982
 },
 {
  "id": "910",
  "name": "Gatte Gallo",
  "type": "poste de sante",
  "region": "Diourbel",
  "lat": 14.6966713753,
  "lon": -16.5346307686
 },
 {
  "id": "911",
  "name": "Gawane",
  "type": "poste de sante",
  "region": "Diourbel",
  "lat": 14.8469418534,
  "lon": -16.3921768516
 },
 {
  "id": "912",
  "name": "Gninguene Salao",
  "type": "case de sante",
  "region": "Diourbel",
  "lat": 14.80792,
  "lon": -16.25053
 },
 {
  "id": "913",
  "name": "Gourgourene",
  "type": "poste de sante",
  "region": "Diourbel",
  "lat": 14.6650302943,
  "lon": -16.3733759803
 },
 {
  "id": "914",
  "name": "Gouye Mbind",
  "type": "poste de sante",
  "region": "Diourbel",
  "lat": 14.8655331613,
  "lon": -15.8550634032
 },
 {
  "id": "915",
  "name": "Grand Diourbel",
  "type": "poste de sante",
  "region": "Diourbel",
  "lat": 14.6369075818,
  "lon": -16.2372368196
 },
 {
  "id": "916",
  "name": "Gringel",
  "type": "case de sante",
  "region": "Diourbel",
  "lat": 14.69756,
  "lon": -15.81435
 },
 {
  "id": "917",
  "name": "Guede Bousso",
  "type": "poste de sante",
  "region": "Diourbel",
  "lat": 14.8884288153,
  "lon": -15.8756338739
 },
 {
  "id": "918",
  "name": "Guede Kaw",
  "type": "poste de sante",
  "region": "Diourbel",
  "lat": 14.8968996511,
  "lon": -15.8783138851
 },
 {
  "id": "919",
  "name": "Guerle",
  "type": "poste de sante",
  "region": "Diourbel",
  "lat": 14.819025899,
  "lon": -15.4511323512
 },
 {
  "id": "920",
  "name": "Heinrich Lubke",
  "type": "hopital",
  "region": "Diourbel",
  "lat": 14.64413,
  "lon": -16.23243
 },
 {
  "id": "921",
  "name": "Heliport",
  "type": "poste de sante",
  "region": "Diourbel",
  "lat": 14.8189268599,
  "lon": -15.9199940368
 },
 {
  "id": "924",
  "name": "Inf. De La Compa. Gendar",
  "type": "centre de sante",
  "region": "Diourbel",
  "lat": 14.65109,
  "lon": -16.25228
 },
 {
  "id": "925",
  "name": "Inf. Sapeur Pompier",
  "type": "poste de sante",
  "region": "Diourbel",
  "lat": 14.65661,
  "lon": -16.23632
 },
 {
  "id": "926",
  "name": "Inf. Sonacos",
  "type": "poste de sante",
  "region": "Diourbel",
  "lat": 14.6533,
  "lon": -16.265
 },
 {
  "id": "927",
  "name": "Kael",
  "type": "poste de sante",
  "region": "Diourbel",
  "lat": 14.7111166178,
  "lon": -15.9041550947
 },
 {
  "id": "928",
  "name": "Kaira",
  "type": "poste de sante",
  "region": "Diourbel",
  "lat": 14.8666,
  "lon": -15.8724
 },
 {
  "id": "929",
  "name": "Kere Ndaw",
  "type": "case de sante",
  "region": "Diourbel",
  "lat": 14.85521,
  "lon": -15.77747
 },
 {
  "id": "930",
  "name": "Keur Madiop",
  "type": "poste de sante",
  "region": "Diourbel",
  "lat": 15.0164687699,
  "lon": -16.4253024914
 },
 {
  "id": "931",
  "name": "Keur Ngalgou",
  "type": "poste de sante",
  "region": "Diourbel",
  "lat": 14.873579439,
  "lon": -16.3059715249
 },
 {
  "id": "932",
  "name": "Keur Nganne",
  "type": "poste de sante",
  "region": "Diourbel",
  "lat": 14.9953538,
  "lon": -16.3309687
 },
 {
  "id": "933",
  "name": "Keur Niang",
  "type": "poste de sante",
  "region": "Diourbel",
  "lat": 14.8479083541,
  "lon": -15.8698252111
 },
 {
  "id": "934",
  "name": "Keur Samba Kane",
  "type": "poste de sante",
  "region": "Diourbel",
  "lat": 14.8936195456,
  "lon": -16.5992655602
 },
 {
  "id": "935",
  "name": "Keur Serigne Mbaye Sarr",
  "type": "poste de sante",
  "region": "Diourbel",
  "lat": 14.9337,
  "lon": -16.3635
 },
 {
  "id": "937",
  "name": "Khayokh",
  "type": "case de sante",
  "region": "Diourbel",
  "lat": 14.62174,
  "lon": -16.17164
 },
 {
  "id": "939",
  "name": "Kodiole",
  "type": "case de sante",
  "region": "Diourbel",
  "lat": 14.937845,
  "lon": -15.879403
 },
 {
  "id": "940",
  "name": "Lagnar",
  "type": "poste de sante",
  "region": "Diourbel",
  "lat": 14.6660338254,
  "lon": -16.3305050249
 },
 {
  "id": "941",
  "name": "Lambaye",
  "type": "poste de sante",
  "region": "Diourbel",
  "lat": 14.8040002234,
  "lon": -16.5339969732
 },
 {
  "id": "942",
  "name": "Leona",
  "type": "poste de sante",
  "region": "Diourbel",
  "lat": 14.7000021744,
  "lon": -16.4480833992
 },
 {
  "id": "943",
  "name": "Madina",
  "type": "poste de sante",
  "region": "Diourbel",
  "lat": 14.7227301548,
  "lon": -15.8317218567
 },
 {
  "id": "944",
  "name": "Madyana 1",
  "type": "poste de sante",
  "region": "Diourbel",
  "lat": 14.8646330545,
  "lon": -15.8972473692
 },
 {
  "id": "945",
  "name": "Madyana 2",
  "type": "poste de sante",
  "region": "Diourbel",
  "lat": 14.8680230134,
  "lon": -15.8999741645
 },
 {
  "id": "946",
  "name": "Matlaboul Fawzayni",
  "type": "hopital",
  "region": "Diourbel",
  "lat": 14.85857,
  "lon": -15.90792
 },
 {
  "id": "947",
  "name": "Maty Leye",
  "type": "poste de sante",
  "region": "Diourbel",
  "lat": 14.7084,
  "lon": -16.1333
 },
 {
  "id": "948",
  "name": "Mbacke",
  "type": "centre de sante",
  "region": "Diourbel",
  "lat": 14.7988086013,
  "lon": -15.9099720994
 },
 {
  "id": "949",
  "name": "Mbacke Ndimb",
  "type": "poste de sante",
  "region": "Diourbel",
  "lat": 14.8029380128,
  "lon": -15.9147960394
 },
 {
  "id": "950",
  "name": "Mbarassane",
  "type": "case de sante",
  "region": "Diourbel",
  "lat": 14.76664,
  "lon": -16.31869
 },
 {
  "id": "951",
  "name": "Mbary Darou",
  "type": "case de sante",
  "region": "Diourbel",
  "lat": 14.74901,
  "lon": -16.48256
 },
 {
  "id": "952",
  "name": "Mbary Sapolek",
  "type": "case de sante",
  "region": "Diourbel",
  "lat": 14.7474,
  "lon": -16.49097
 },
 {
  "id": "953",
  "name": "Mbaye Ndiaye",
  "type": "poste de sante",
  "region": "Diourbel",
  "lat": 14.85823,
  "lon": -15.87812
 },
 {
  "id": "954",
  "name": "Mboussobe",
  "type": "poste de sante",
  "region": "Diourbel",
  "lat": 14.8145261776,
  "lon": -15.8804065671
 },
 {
  "id": "955",
  "name": "Medinatoul",
  "type": "poste de sante",
  "region": "Diourbel",
  "lat": 14.658167406,
  "lon": -16.2169695737
 },
 {
  "id": "956",
  "name": "Mekhe Lambaye",
  "type": "poste de sante",
  "region": "Diourbel",
  "lat": 14.7779439753,
  "lon": -16.5284476963
 },
 {
  "id": "958",
  "name": "Merina Thiakho",
  "type": "poste de sante",
  "region": "Diourbel",
  "lat": 14.7736,
  "lon": -16.1071
 },
 {
  "id": "959",
  "name": "Missirah",
  "type": "poste de sante",
  "region": "Diourbel",
  "lat": 14.9381030801,
  "lon": -15.9608878439
 },
 {
  "id": "960",
  "name": "Mme Elisabeth Diouf",
  "type": "poste de sante",
  "region": "Diourbel",
  "lat": 14.6641335447,
  "lon": -16.227674149
 },
 {
  "id": "961",
  "name": "Municipal",
  "type": "poste de sante",
  "region": "Diourbel",
  "lat": 14.8021406763,
  "lon": -15.9031636784
 },
 {
  "id": "962",
  "name": "Nasrou Bogo",
  "type": "case de sante",
  "region": "Diourbel",
  "lat": 15.0447,
  "lon": -15.8602
 },
 {
  "id": "963",
  "name": "Ndamatou",
  "type": "hopital",
  "region": "Diourbel",
  "lat": 14.8590438625,
  "lon": -15.8629269791
 },
 {
  "id": "964",
  "name": "Ndayane",
  "type": "poste de sante",
  "region": "Diourbel",
  "lat": 14.6327566479,
  "lon": -16.2303848036
 },
 {
  "id": "965",
  "name": "Ndeme Meissa",
  "type": "poste de sante",
  "region": "Diourbel",
  "lat": 14.7964867991,
  "lon": -16.4679010524
 },
 {
  "id": "966",
  "name": "Ndeme Ndiaye",
  "type": "case de sante",
  "region": "Diourbel",
  "lat": 14.7782,
  "lon": -16.20208
 },
 {
  "id": "967",
  "name": "Ndereppe",
  "type": "poste de sante",
  "region": "Diourbel",
  "lat": 14.756318638,
  "lon": -16.5785954893
 },
 {
  "id": "968",
  "name": "Ndiakalack",
  "type": "poste de sante",
  "region": "Diourbel",
  "lat": 14.7769,
  "lon": -16.51072
 },
 {
  "id": "969",
  "name": "Ndindy",
  "type": "poste de sante",
  "region": "Diourbel",
  "lat": 14.8955405625,
  "lon": -16.2027283985
 },
 {
  "id": "971",
  "name": "Ndindy Fallou",
  "type": "poste de sante",
  "region": "Diourbel",
  "lat": 14.8745968311,
  "lon": -15.8264771691
 },
 {
  "id": "972",
  "name": "Ndiokhoba",
  "type": "case de sante",
  "region": "Diourbel",
  "lat": 14.67675,
  "lon": -16.29742
 },
 {
  "id": "973",
  "name": "Ndioumane Taiba",
  "type": "poste de sante",
  "region": "Diourbel",
  "lat": 14.6325816247,
  "lon": -15.998259265
 },
 {
  "id": "974",
  "name": "Ndocka",
  "type": "poste de sante",
  "region": "Diourbel",
  "lat": 14.564,
  "lon": -16.0
 },
 {
  "id": "976",
  "name": "Ndondol",
  "type": "poste de sante",
  "region": "Diourbel",
  "lat": 14.647232077,
  "lon": -16.5883338521
 },
 {
  "id": "977",
  "name": "Ndorong",
  "type": "case de sante",
  "region": "Diourbel",
  "lat": 13.99593,
  "lon": -16.343305
 },
 {
  "id": "978",
  "name": "Ndoulo",
  "type": "poste de sante",
  "region": "Diourbel",
  "lat": 14.7398955797,
  "lon": -16.1091406554
 },
 {
  "id": "979",
  "name": "Ndour Ndour",
  "type": "case de sante",
  "region": "Diourbel",
  "lat": 14.77587,
  "lon": -16.56441
 },
 {
  "id": "980",
  "name": "Nghaye",
  "type": "poste de sante",
  "region": "Diourbel",
  "lat": 14.8202910096,
  "lon": -16.0462730992
 },
 {
  "id": "981",
  "name": "Ngogom",
  "type": "poste de sante",
  "region": "Diourbel",
  "lat": 14.7507823718,
  "lon": -16.524245289
 },
 {
  "id": "982",
  "name": "Ngowane Faye",
  "type": "case de sante",
  "region": "Diourbel",
  "lat": 14.67168,
  "lon": -16.02846
 },
 {
  "id": "984",
  "name": "Ngoye Mbadatt",
  "type": "poste de sante",
  "region": "Diourbel",
  "lat": 14.664,
  "lon": -16.3583
 },
 {
  "id": "985",
  "name": "Oumoul Khaira",
  "type": "poste de sante",
  "region": "Diourbel",
  "lat": 14.8579480904,
  "lon": -15.9460794393
 },
 {
  "id": "987",
  "name": "Patar",
  "type": "poste de sante",
  "region": "Diourbel",
  "lat": 14.7085292897,
  "lon": -16.1565728033
 },
 {
  "id": "988",
  "name": "Pathieme",
  "type": "case de sante",
  "region": "Diourbel",
  "lat": 14.55,
  "lon": -15.88333
 },
 {
  "id": "990",
  "name": "Refane",
  "type": "poste de sante",
  "region": "Diourbel",
  "lat": 14.7864481371,
  "lon": -16.6127292043
 },
 {
  "id": "991",
  "name": "Reomao",
  "type": "poste de sante",
  "region": "Diourbel",
  "lat": 14.8134,
  "lon": -16.61825
 },
 {
  "id": "992",
  "name": "Sadio",
  "type": "poste de sante",
  "region": "Diourbel",
  "lat": 14.795992047,
  "lon": -15.5467057294
 },
 {
  "id": "993",
  "name": "Sahm",
  "type": "poste de sante",
  "region": "Diourbel",
  "lat": 14.8781766962,
  "lon": -15.9299303081
 },
 {
  "id": "995",
  "name": "Saint Martin",
  "type": "poste de sante",
  "region": "Diourbel",
  "lat": 14.6983622051,
  "lon": -16.4575022456
 },
 {
  "id": "996",
  "name": "Sambe Nginth",
  "type": "case de sante",
  "region": "Diourbel",
  "lat": 14.69792,
  "lon": -16.18292
 },
 {
  "id": "997",
  "name": "Sante Maternelle Et Infantile (Smi) De Ndolndol",
  "type": "poste de sante",
  "region": "Diourbel",
  "lat": 14.6524,
  "lon": -16.414
 },
 {
  "id": "998",
  "name": "Sareme Serere",
  "type": "case de sante",
  "region": "Diourbel",
  "lat": 14.69975,
  "lon": -16.25189
 },
 {
  "id": "1001",
  "name": "Serigne Mbaye Sarr",
  "type": "poste de sante",
  "region": "Diourbel",
  "lat": 14.6464538766,
  "lon": -16.2209132598
 },
 {
  "id": "1002",
  "name": "Serigne Saliou Mbacke",
  "type": "poste de sante",
  "region": "Diourbel",
  "lat": 14.8568728467,
  "lon": -15.8780112664
 },
 {
  "id": "1003",
  "name": "Sessene",
  "type": "poste de sante",
  "region": "Diourbel",
  "lat": 14.6482684507,
  "lon": -16.2525224028
 },
 {
  "id": "1004",
  "name": "Silane",
  "type": "poste de sante",
  "region": "Diourbel",
  "lat": 14.73389,
  "lon": -16.4667
 },
 {
  "id": "1007",
  "name": "Sourah",
  "type": "poste de sante",
  "region": "Diourbel",
  "lat": 14.8695903054,
  "lon": -15.8647710596
 },
 {
  "id": "1008",
  "name": "Taiba Moutoupha",
  "type": "poste de sante",
  "region": "Diourbel",
  "lat": 14.7979638619,
  "lon": -16.299995254
 },
 {
  "id": "1009",
  "name": "Taiba Thekene",
  "type": "poste de sante",
  "region": "Diourbel",
  "lat": 14.7262546865,
  "lon": -15.9803001089
 },
 {
  "id": "1010",
  "name": "Taif",
  "type": "poste de sante",
  "region": "Diourbel",
  "lat": 14.7876188877,
  "lon": -15.6526393228
 },
 {
  "id": "1011",
  "name": "Tawa Fall",
  "type": "poste de sante",
  "region": "Diourbel",
  "lat": 14.9768578574,
  "lon": -16.5549927094
 },
 {
  "id": "1012",
  "name": "Tawfekh Khayga",
  "type": "case de sante",
  "region": "Diourbel",
  "lat": 14.59882,
  "lon": -15.83385
 },
 {
  "id": "1013",
  "name": "Thiakhar",
  "type": "poste de sante",
  "region": "Diourbel",
  "lat": 14.6968363899,
  "lon": -16.3596808335
 },
 {
  "id": "1014",
  "name": "Thiawene",
  "type": "poste de sante",
  "region": "Diourbel",
  "lat": 14.8205518178,
  "lon": -15.9406890583
 },
 {
  "id": "1015",
  "name": "Thieppe",
  "type": "poste de sante",
  "region": "Diourbel",
  "lat": 14.8423930961,
  "lon": -16.4933014214
 },
 {
  "id": "1016",
  "name": "Thieytou",
  "type": "poste de sante",
  "region": "Diourbel",
  "lat": 14.9333,
  "lon": -16.4167
 },
 {
  "id": "1017",
  "name": "Thilmakha",
  "type": "case de sante",
  "region": "Diourbel",
  "lat": 14.76051,
  "lon": -16.50085
 },
 {
  "id": "1018",
  "name": "Thiobe",
  "type": "poste de sante",
  "region": "Diourbel",
  "lat": 14.7332463,
  "lon": -16.1112338
 },
 {
  "id": "1019",
  "name": "Tindody",
  "type": "poste de sante",
  "region": "Diourbel",
  "lat": 14.899727,
  "lon": -15.842255
 },
 {
  "id": "1020",
  "name": "Tocky Gare",
  "type": "poste de sante",
  "region": "Diourbel",
  "lat": 14.5941485889,
  "lon": -16.1479327042
 },
 {
  "id": "1021",
  "name": "Touba 8",
  "type": "poste de sante",
  "region": "Diourbel",
  "lat": 14.85691,
  "lon": -15.87828
 },
 {
  "id": "1023",
  "name": "Touba Belel",
  "type": "poste de sante",
  "region": "Diourbel",
  "lat": 15.0440313944,
  "lon": -15.8594855102
 },
 {
  "id": "1024",
  "name": "Touba Bogo",
  "type": "poste de sante",
  "region": "Diourbel",
  "lat": 14.9210046038,
  "lon": -15.6880948084
 },
 {
  "id": "1025",
  "name": "Touba Fall",
  "type": "poste de sante",
  "region": "Diourbel",
  "lat": 14.8646276053,
  "lon": -15.9931868592
 },
 {
  "id": "1026",
  "name": "Touba Guede Bosso",
  "type": "poste de sante",
  "region": "Diourbel",
  "lat": 14.88832,
  "lon": -15.87561
 },
 {
  "id": "1028",
  "name": "Touba Khaira",
  "type": "poste de sante",
  "region": "Diourbel",
  "lat": 14.8466064231,
  "lon": -15.8918984369
 },
 {
  "id": "1030",
  "name": "Touba Mboul Kael",
  "type": "poste de sante",
  "region": "Diourbel",
  "lat": 14.5711061827,
  "lon": -15.9488199854
 },
 {
  "id": "1032",
  "name": "Touba Toundodi",
  "type": "poste de sante",
  "region": "Diourbel",
  "lat": 14.900323008,
  "lon": -15.842203734
 },
 {
  "id": "1033",
  "name": "Toure Bonde",
  "type": "poste de sante",
  "region": "Diourbel",
  "lat": 14.7250796889,
  "lon": -16.2214785608
 },
 {
  "id": "1034",
  "name": "Typ",
  "type": "poste de sante",
  "region": "Diourbel",
  "lat": 14.6729244832,
  "lon": -15.8557046843
 },
 {
  "id": "1036",
  "name": "Xadim",
  "type": "hopital",
  "region": "Diourbel",
  "lat": 14.65746,
  "lon": -16.22797
 },
 {
  "id": "1037",
  "name": "Yessi",
  "type": "case de sante",
  "region": "Diourbel",
  "lat": 14.83375,
  "lon": -16.04298
 },
 {
  "id": "1038",
  "name": "Baboucar",
  "type": "case de sante",
  "region": "Fatick",
  "lat": 14.10842,
  "lon": -16.71846
 },
 {
  "id": "1039",
  "name": "Baccobof",
  "type": "poste de sante",
  "region": "Fatick",
  "lat": 14.381124105,
  "lon": -16.6807975491
 },
 {
  "id": "1040",
  "name": "Badoudou",
  "type": "case de sante",
  "region": "Fatick",
  "lat": 13.851195,
  "lon": -16.402301
 },
 {
  "id": "1044",
  "name": "Bangalere",
  "type": "case de sante",
  "region": "Fatick",
  "lat": 13.95737,
  "lon": -16.42013
 },
 {
  "id": "1046",
  "name": "Baria",
  "type": "poste de sante",
  "region": "Fatick",
  "lat": 13.6648435558,
  "lon": -16.1866772665
 },
 {
  "id": "1047",
  "name": "Bassar",
  "type": "poste de sante",
  "region": "Fatick",
  "lat": 13.9207364568,
  "lon": -16.6091055312
 },
 {
  "id": "1048",
  "name": "Bassoul",
  "type": "poste de sante",
  "region": "Fatick",
  "lat": 13.9245111428,
  "lon": -16.5929424805
 },
 {
  "id": "1049",
  "name": "Betenty",
  "type": "poste de sante",
  "region": "Fatick",
  "lat": 13.880481417,
  "lon": -16.3726852975
 },
 {
  "id": "1051",
  "name": "Bicole",
  "type": "poste de sante",
  "region": "Fatick",
  "lat": 14.4173785957,
  "lon": -16.4524828175
 },
 {
  "id": "1052",
  "name": "Bof Mbaleme",
  "type": "poste de sante",
  "region": "Fatick",
  "lat": 14.487965362,
  "lon": -16.2300984753
 },
 {
  "id": "1054",
  "name": "Bossinkang",
  "type": "poste de sante",
  "region": "Fatick",
  "lat": 13.8805799457,
  "lon": -16.3726619149
 },
 {
  "id": "1056",
  "name": "Boyard",
  "type": "case de sante",
  "region": "Fatick",
  "lat": 14.31403,
  "lon": -16.65368
 },
 {
  "id": "1057",
  "name": "Cemedra Ou Centre De Malango",
  "type": "centre de sante",
  "region": "Fatick",
  "lat": 14.32755862,
  "lon": -16.40317257
 },
 {
  "id": "1058",
  "name": "Colobane",
  "type": "poste de sante",
  "region": "Fatick",
  "lat": 14.6413477579,
  "lon": -15.7073014266
 },
 {
  "id": "1059",
  "name": "Coular Soce",
  "type": "poste de sante",
  "region": "Fatick",
  "lat": 13.690073537,
  "lon": -16.1720977479
 },
 {
  "id": "1062",
  "name": "Dalal Xel",
  "type": "hopital",
  "region": "Fatick",
  "lat": 14.34517,
  "lon": -16.4256
 },
 {
  "id": "1065",
  "name": "Darou Marnane",
  "type": "poste de sante",
  "region": "Fatick",
  "lat": 14.4593122073,
  "lon": -15.8780913351
 },
 {
  "id": "1070",
  "name": "Darou Salam Rural",
  "type": "poste de sante",
  "region": "Fatick",
  "lat": 14.5535625609,
  "lon": -16.1689618626
 },
 {
  "id": "1071",
  "name": "Darou Salam Urbain",
  "type": "poste de sante",
  "region": "Fatick",
  "lat": 14.3359362233,
  "lon": -16.4137670917
 },
 {
  "id": "1074",
  "name": "Dekhaye",
  "type": "case de sante",
  "region": "Fatick",
  "lat": 14.44773,
  "lon": -15.8416
 },
 {
  "id": "1075",
  "name": "Diabel",
  "type": "poste de sante",
  "region": "Fatick",
  "lat": 14.5866301061,
  "lon": -15.575422777
 },
 {
  "id": "1076",
  "name": "Diagane Barka",
  "type": "poste de sante",
  "region": "Fatick",
  "lat": 14.0227113671,
  "lon": -16.2933832972
 },
 {
  "id": "1079",
  "name": "Diakhao",
  "type": "poste de sante",
  "region": "Fatick",
  "lat": 14.4631076497,
  "lon": -16.2915430554
 },
 {
  "id": "1082",
  "name": "Diamniadio",
  "type": "poste de sante",
  "region": "Fatick",
  "lat": 14.0668938749,
  "lon": -16.575045509
 },
 {
  "id": "1083",
  "name": "Diaoule",
  "type": "poste de sante",
  "region": "Fatick",
  "lat": 14.3729640746,
  "lon": -16.2239921604
 },
 {
  "id": "1084",
  "name": "Diarere",
  "type": "poste de sante",
  "region": "Fatick",
  "lat": 14.440601564,
  "lon": -16.4819202777
 },
 {
  "id": "1086",
  "name": "Dioffior",
  "type": "centre de sante",
  "region": "Fatick",
  "lat": 14.178896283,
  "lon": -16.660883914
 },
 {
  "id": "1087",
  "name": "Diogane",
  "type": "poste de sante",
  "region": "Fatick",
  "lat": 13.8744762725,
  "lon": -16.6421514368
 },
 {
  "id": "1088",
  "name": "Diohine",
  "type": "poste de sante",
  "region": "Fatick",
  "lat": 14.3033,
  "lon": -16.29917
 },
 {
  "id": "1089",
  "name": "Diokoul",
  "type": "case de sante",
  "region": "Fatick",
  "lat": 14.49866,
  "lon": -16.44394
 },
 {
  "id": "1090",
  "name": "Dionewar",
  "type": "poste de sante",
  "region": "Fatick",
  "lat": 13.8890355314,
  "lon": -16.7309447395
 },
 {
  "id": "1091",
  "name": "Diossong",
  "type": "poste de sante",
  "region": "Fatick",
  "lat": 13.9279514198,
  "lon": -16.3337411459
 },
 {
  "id": "1092",
  "name": "Diouroup",
  "type": "poste de sante",
  "region": "Fatick",
  "lat": 14.3678808862,
  "lon": -16.523327484
 },
 {
  "id": "1095",
  "name": "Djilasse",
  "type": "poste de sante",
  "region": "Fatick",
  "lat": 14.2486125429,
  "lon": -16.6359661572
 },
 {
  "id": "1096",
  "name": "Dpc Djilasse",
  "type": "poste de sante",
  "region": "Fatick",
  "lat": 14.2486125429,
  "lon": -16.6359661572
 },
 {
  "id": "1097",
  "name": "Djilasseme Theurigne",
  "type": "poste de sante",
  "region": "Fatick",
  "lat": 14.4194,
  "lon": -16.2486
 },
 {
  "id": "1098",
  "name": "Djilor",
  "type": "poste de sante",
  "region": "Fatick",
  "lat": 14.0541903626,
  "lon": -16.3340011697
 },
 {
  "id": "1101",
  "name": "Djirnda",
  "type": "poste de sante",
  "region": "Fatick",
  "lat": 13.9785673542,
  "lon": -16.6096022387
 },
 {
  "id": "1102",
  "name": "Dpc Diohine",
  "type": "poste de sante",
  "region": "Fatick",
  "lat": 14.502012581,
  "lon": -16.5029449095
 },
 {
  "id": "1103",
  "name": "Dpc Fatick",
  "type": "poste de sante",
  "region": "Fatick",
  "lat": 14.3257801568,
  "lon": -16.4054285798
 },
 {
  "id": "1104",
  "name": "Dpc Sokone",
  "type": "poste de sante",
  "region": "Fatick",
  "lat": 13.8834606871,
  "lon": -16.3745213626
 },
 {
  "id": "1105",
  "name": "Dpc Tchingue",
  "type": "poste de sante",
  "region": "Fatick",
  "lat": 14.4752210802,
  "lon": -15.8182042089
 },
 {
  "id": "1107",
  "name": "El Hadj Mame Moussa Sarr",
  "type": "poste de sante",
  "region": "Fatick",
  "lat": 14.06176,
  "lon": -16.33311
 },
 {
  "id": "1110",
  "name": "Falia",
  "type": "case de sante",
  "region": "Fatick",
  "lat": 13.919,
  "lon": -16.67915
 },
 {
  "id": "1112",
  "name": "Faoye",
  "type": "poste de sante",
  "region": "Fatick",
  "lat": 14.2295188887,
  "lon": -16.5753222635
 },
 {
  "id": "1113",
  "name": "Fatick",
  "type": "hopital",
  "region": "Fatick",
  "lat": 14.34528,
  "lon": -16.4145
 },
 {
  "id": "1114",
  "name": "Fatick",
  "type": "centre de sante",
  "region": "Fatick",
  "lat": 14.3279979161,
  "lon": -16.4056106362
 },
 {
  "id": "1116",
  "name": "Fayil",
  "type": "poste de sante",
  "region": "Fatick",
  "lat": 14.2891903451,
  "lon": -16.4851629391
 },
 {
  "id": "1119",
  "name": "Fimela",
  "type": "poste de sante",
  "region": "Fatick",
  "lat": 14.1307420755,
  "lon": -16.6600078309
 },
 {
  "id": "1120",
  "name": "Foundiougne",
  "type": "centre de sante",
  "region": "Fatick",
  "lat": 14.1226644178,
  "lon": -16.463538992
 },
 {
  "id": "1122",
  "name": "Gague Cherif",
  "type": "case de sante",
  "region": "Fatick",
  "lat": 14.11281,
  "lon": -16.34975
 },
 {
  "id": "1124",
  "name": "Gaina Mbar",
  "type": "poste de sante",
  "region": "Fatick",
  "lat": 14.6961283463,
  "lon": -15.6451422628
 },
 {
  "id": "1125",
  "name": "Gassel",
  "type": "case de sante",
  "region": "Fatick",
  "lat": 14.41841,
  "lon": -16.13619
 },
 {
  "id": "1126",
  "name": "Gayes",
  "type": "case de sante",
  "region": "Fatick",
  "lat": 14.69531,
  "lon": -15.67434
 },
 {
  "id": "1127",
  "name": "Gossas",
  "type": "centre de sante",
  "region": "Fatick",
  "lat": 14.4999245347,
  "lon": -16.0774523875
 },
 {
  "id": "1133",
  "name": "Karang",
  "type": "poste de sante",
  "region": "Fatick",
  "lat": 13.604433425,
  "lon": -16.4242890105
 },
 {
  "id": "1135",
  "name": "Kebe Ansou",
  "type": "case de sante",
  "region": "Fatick",
  "lat": 13.96061,
  "lon": -16.29245
 },
 {
  "id": "1138",
  "name": "Keur Aliou Gueye",
  "type": "case de sante",
  "region": "Fatick",
  "lat": 13.78212,
  "lon": -16.41095
 },
 {
  "id": "1139",
  "name": "Keur Amath Seune",
  "type": "poste de sante",
  "region": "Fatick",
  "lat": 13.8682427109,
  "lon": -16.2742914446
 },
 {
  "id": "1143",
  "name": "Keur Birane",
  "type": "poste de sante",
  "region": "Fatick",
  "lat": 13.9052545403,
  "lon": -16.2769691345
 },
 {
  "id": "1146",
  "name": "Keur Gaye Yacine",
  "type": "case de sante",
  "region": "Fatick",
  "lat": 13.86415,
  "lon": -16.23977
 },
 {
  "id": "1149",
  "name": "Keur Layene Fatim",
  "type": "case de sante",
  "region": "Fatick",
  "lat": 13.73212,
  "lon": -16.38542
 },
 {
  "id": "1150",
  "name": "Keur Layene Khoredia",
  "type": "case de sante",
  "region": "Fatick",
  "lat": 13.76199,
  "lon": -16.23749
 },
 {
  "id": "1151",
  "name": "Keur Macoumba",
  "type": "case de sante",
  "region": "Fatick",
  "lat": 13.7365,
  "lon": -16.24637
 },
 {
  "id": "1161",
  "name": "Keur Saloum Diane",
  "type": "poste de sante",
  "region": "Fatick",
  "lat": 13.7588184459,
  "lon": -16.2674726063
 },
 {
  "id": "1162",
  "name": "Keur Samba Gueye",
  "type": "poste de sante",
  "region": "Fatick",
  "lat": 13.6498864972,
  "lon": -16.3614232803
 },
 {
  "id": "1164",
  "name": "Keur Sette Gueye",
  "type": "case de sante",
  "region": "Fatick",
  "lat": 13.59964,
  "lon": -16.38529
 },
 {
  "id": "1169",
  "name": "Kobongoye 2",
  "type": "case de sante",
  "region": "Fatick",
  "lat": 14.16169,
  "lon": -16.72298
 },
 {
  "id": "1170",
  "name": "Lakhar",
  "type": "case de sante",
  "region": "Fatick",
  "lat": 14.53192,
  "lon": -16.358595
 },
 {
  "id": "1171",
  "name": "Lerane Coly",
  "type": "poste de sante",
  "region": "Fatick",
  "lat": 13.9694988478,
  "lon": -16.3932588269
 },
 {
  "id": "1173",
  "name": "Loul Sessene",
  "type": "poste de sante",
  "region": "Fatick",
  "lat": 14.3113328537,
  "lon": -16.6072974741
 },
 {
  "id": "1175",
  "name": "Loumby Diaoule",
  "type": "case de sante",
  "region": "Fatick",
  "lat": 14.51494,
  "lon": -15.66748
 },
 {
  "id": "1179",
  "name": "Marfafaco",
  "type": "poste de sante",
  "region": "Fatick",
  "lat": 14.0525987224,
  "lon": -16.6415067578
 },
 {
  "id": "1180",
  "name": "Marguerite Davary",
  "type": "poste de sante",
  "region": "Fatick",
  "lat": 14.2808357634,
  "lon": -16.3333552716
 },
 {
  "id": "1181",
  "name": "Marlothie",
  "type": "poste de sante",
  "region": "Fatick",
  "lat": 14.0445955821,
  "lon": -16.677490228
 },
 {
  "id": "1182",
  "name": "Maroute",
  "type": "poste de sante",
  "region": "Fatick",
  "lat": 14.3829713503,
  "lon": -16.2711875764
 },
 {
  "id": "1184",
  "name": "Mbadatte",
  "type": "poste de sante",
  "region": "Fatick",
  "lat": 14.5314260665,
  "lon": -16.361183099
 },
 {
  "id": "1187",
  "name": "Mbam Diegane",
  "type": "case de sante",
  "region": "Fatick",
  "lat": 14.39258,
  "lon": -15.82696
 },
 {
  "id": "1190",
  "name": "Mbar",
  "type": "poste de sante",
  "region": "Fatick",
  "lat": 14.5390911671,
  "lon": -15.7580843479
 },
 {
  "id": "1194",
  "name": "Mbelane",
  "type": "poste de sante",
  "region": "Fatick",
  "lat": 14.0492163352,
  "lon": -16.4429195276
 },
 {
  "id": "1195",
  "name": "Mbellacadiao",
  "type": "poste de sante",
  "region": "Fatick",
  "lat": 14.3405153068,
  "lon": -16.2941635729
 },
 {
  "id": "1196",
  "name": "Mbellongoutte",
  "type": "poste de sante",
  "region": "Fatick",
  "lat": 14.3769915793,
  "lon": -16.6422991313
 },
 {
  "id": "1198",
  "name": "Mbetite",
  "type": "poste de sante",
  "region": "Fatick",
  "lat": 14.4368,
  "lon": -16.5503
 },
 {
  "id": "1204",
  "name": "Mbouma",
  "type": "poste de sante",
  "region": "Fatick",
  "lat": 14.3718349201,
  "lon": -16.3270161246
 },
 {
  "id": "1205",
  "name": "Mbowene",
  "type": "poste de sante",
  "region": "Fatick",
  "lat": 13.8936086385,
  "lon": -16.3050368337
 },
 {
  "id": "1206",
  "name": "Medina Djikoye",
  "type": "poste de sante",
  "region": "Fatick",
  "lat": 13.6264989692,
  "lon": -16.2875776283
 },
 {
  "id": "1207",
  "name": "Medina Ngayene",
  "type": "case de sante",
  "region": "Fatick",
  "lat": 13.63027,
  "lon": -16.24759
 },
 {
  "id": "1208",
  "name": "Medina Sangako",
  "type": "case de sante",
  "region": "Fatick",
  "lat": 13.81786,
  "lon": -16.45178
 },
 {
  "id": "1209",
  "name": "Missirah",
  "type": "poste de sante",
  "region": "Fatick",
  "lat": 13.6806555258,
  "lon": -16.5027418918
 },
 {
  "id": "1210",
  "name": "Mounde",
  "type": "poste de sante",
  "region": "Fatick",
  "lat": 13.9554877119,
  "lon": -16.6492598222
 },
 {
  "id": "1211",
  "name": "Moure",
  "type": "poste de sante",
  "region": "Fatick",
  "lat": 14.5978657337,
  "lon": -15.6379579084
 },
 {
  "id": "1213",
  "name": "Ndangane",
  "type": "poste de sante",
  "region": "Fatick",
  "lat": 14.073666918,
  "lon": -16.6913816091
 },
 {
  "id": "1219",
  "name": "Ndiaye Ndiaye",
  "type": "poste de sante",
  "region": "Fatick",
  "lat": 14.3229722955,
  "lon": -16.4104143942
 },
 {
  "id": "1220",
  "name": "Ndiaye Ndiaye",
  "type": "poste de sante",
  "region": "Fatick",
  "lat": 13.9555806355,
  "lon": -16.3509312527
 },
 {
  "id": "1226",
  "name": "Ndiene Lagane",
  "type": "poste de sante",
  "region": "Fatick",
  "lat": 14.5121949533,
  "lon": -15.9245157101
 },
 {
  "id": "1229",
  "name": "Ndiongolor",
  "type": "poste de sante",
  "region": "Fatick",
  "lat": 14.3562000881,
  "lon": -16.4875407781
 },
 {
  "id": "1230",
  "name": "Ndiop",
  "type": "poste de sante",
  "region": "Fatick",
  "lat": 14.545941142,
  "lon": -16.2535855134
 },
 {
  "id": "1231",
  "name": "Ndiop Thiarene",
  "type": "case de sante",
  "region": "Fatick",
  "lat": 13.80567,
  "lon": -16.36201
 },
 {
  "id": "1232",
  "name": "Ndiosmone",
  "type": "poste de sante",
  "region": "Fatick",
  "lat": 13.9076,
  "lon": -16.6542
 },
 {
  "id": "1234",
  "name": "Ndock Sare",
  "type": "case de sante",
  "region": "Fatick",
  "lat": 14.43666,
  "lon": -16.14702
 },
 {
  "id": "1236",
  "name": "Ndoff",
  "type": "case de sante",
  "region": "Fatick",
  "lat": 14.226673,
  "lon": -16.575684
 },
 {
  "id": "1238",
  "name": "Ndoss",
  "type": "poste de sante",
  "region": "Fatick",
  "lat": 14.4603452319,
  "lon": -16.3658592799
 },
 {
  "id": "1239",
  "name": "Ndouck",
  "type": "poste de sante",
  "region": "Fatick",
  "lat": 14.3333010254,
  "lon": -16.4002617072
 },
 {
  "id": "1240",
  "name": "Ndour Ndour",
  "type": "case de sante",
  "region": "Fatick",
  "lat": 14.10942,
  "lon": -16.3023
 },
 {
  "id": "1243",
  "name": "Nemabah",
  "type": "poste de sante",
  "region": "Fatick",
  "lat": 13.7376371917,
  "lon": -16.4760803568
 },
 {
  "id": "1244",
  "name": "Nemanding",
  "type": "poste de sante",
  "region": "Fatick",
  "lat": 13.7145251484,
  "lon": -16.426728584
 },
 {
  "id": "1245",
  "name": "Nga Dior",
  "type": "case de sante",
  "region": "Fatick",
  "lat": 13.95953,
  "lon": -16.59203
 },
 {
  "id": "1247",
  "name": "Ngayokheme",
  "type": "poste de sante",
  "region": "Fatick",
  "lat": 14.5317514954,
  "lon": -16.4349438062
 },
 {
  "id": "1248",
  "name": "Ngohe Mbadatte",
  "type": "poste de sante",
  "region": "Fatick",
  "lat": 14.3727574824,
  "lon": -16.6203844747
 },
 {
  "id": "1249",
  "name": "Ngohe Ndoffongor",
  "type": "poste de sante",
  "region": "Fatick",
  "lat": 14.3520453802,
  "lon": -16.6282959711
 },
 {
  "id": "1250",
  "name": "Ngonine",
  "type": "case de sante",
  "region": "Fatick",
  "lat": 14.58071,
  "lon": -16.51135
 },
 {
  "id": "1252",
  "name": "Ngoyere",
  "type": "case de sante",
  "region": "Fatick",
  "lat": 14.46579,
  "lon": -16.4164
 },
 {
  "id": "1253",
  "name": "Nguekokh",
  "type": "case de sante",
  "region": "Fatick",
  "lat": 14.05497,
  "lon": -16.31153
 },
 {
  "id": "1254",
  "name": "Niakhar",
  "type": "centre de sante",
  "region": "Fatick",
  "lat": 14.4820670867,
  "lon": -16.4014764571
 },
 {
  "id": "1255",
  "name": "Niassene",
  "type": "poste de sante",
  "region": "Fatick",
  "lat": 13.9514490109,
  "lon": -16.2311620995
 },
 {
  "id": "1256",
  "name": "Niodior",
  "type": "centre de sante",
  "region": "Fatick",
  "lat": 13.8568289036,
  "lon": -16.7226316775
 },
 {
  "id": "1259",
  "name": "Nioro Alassane Tall",
  "type": "poste de sante",
  "region": "Fatick",
  "lat": 13.7759824989,
  "lon": -16.3370461655
 },
 {
  "id": "1260",
  "name": "Nobandane",
  "type": "poste de sante",
  "region": "Fatick",
  "lat": 14.3202357321,
  "lon": -16.6976815603
 },
 {
  "id": "1261",
  "name": "Ouadiour",
  "type": "poste de sante",
  "region": "Fatick",
  "lat": 14.4377082226,
  "lon": -16.0543314416
 },
 {
  "id": "1263",
  "name": "Pakala",
  "type": "poste de sante",
  "region": "Fatick",
  "lat": 13.7471575813,
  "lon": -16.3592795475
 },
 {
  "id": "1264",
  "name": "Palmarin Facao",
  "type": "poste de sante",
  "region": "Fatick",
  "lat": 14.0171189227,
  "lon": -16.7645062561
 },
 {
  "id": "1265",
  "name": "Palmarin Ngallou",
  "type": "poste de sante",
  "region": "Fatick",
  "lat": 14.0414670507,
  "lon": -16.7715348031
 },
 {
  "id": "1266",
  "name": "Palmarin Ngounoumane",
  "type": "poste de sante",
  "region": "Fatick",
  "lat": 14.0117072957,
  "lon": -16.7650597598
 },
 {
  "id": "1267",
  "name": "Passy",
  "type": "centre de sante",
  "region": "Fatick",
  "lat": 13.9864767949,
  "lon": -16.257823956
 },
 {
  "id": "1268",
  "name": "Passy Ndenderling",
  "type": "case de sante",
  "region": "Fatick",
  "lat": 13.69739,
  "lon": -16.39646
 },
 {
  "id": "1269",
  "name": "Patar",
  "type": "poste de sante",
  "region": "Fatick",
  "lat": 14.5626291349,
  "lon": -16.381946702
 },
 {
  "id": "1270",
  "name": "Patar Lia",
  "type": "poste de sante",
  "region": "Fatick",
  "lat": 14.489737328,
  "lon": -16.15660429
 },
 {
  "id": "1271",
  "name": "Peulga Darel",
  "type": "poste de sante",
  "region": "Fatick",
  "lat": 14.338546455,
  "lon": -16.4057848338
 },
 {
  "id": "1278",
  "name": "Sagne",
  "type": "poste de sante",
  "region": "Fatick",
  "lat": 14.4083936449,
  "lon": -16.406392413
 },
 {
  "id": "1280",
  "name": "Samba Dia",
  "type": "poste de sante",
  "region": "Fatick",
  "lat": 14.134163452,
  "lon": -16.7287701297
 },
 {
  "id": "1283",
  "name": "Sanghaie",
  "type": "case de sante",
  "region": "Fatick",
  "lat": 14.43358,
  "lon": -16.36252
 },
 {
  "id": "1284",
  "name": "Santamba",
  "type": "poste de sante",
  "region": "Fatick",
  "lat": 13.7379357253,
  "lon": -16.4245839657
 },
 {
  "id": "1288",
  "name": "Senghor",
  "type": "poste de sante",
  "region": "Fatick",
  "lat": 14.4003130666,
  "lon": -16.5077214133
 },
 {
  "id": "1289",
  "name": "Simal",
  "type": "poste de sante",
  "region": "Fatick",
  "lat": 14.1486145375,
  "lon": -16.6388959532
 },
 {
  "id": "1290",
  "name": "Sirmang",
  "type": "poste de sante",
  "region": "Fatick",
  "lat": 13.62280653,
  "lon": -16.40039473
 },
 {
  "id": "1293",
  "name": "Sobeme",
  "type": "poste de sante",
  "region": "Fatick",
  "lat": 14.4016963624,
  "lon": -16.4579815576
 },
 {
  "id": "1294",
  "name": "Sokone",
  "type": "centre de sante",
  "region": "Fatick",
  "lat": 13.8784108778,
  "lon": -16.3707768368
 },
 {
  "id": "1297",
  "name": "Sorom",
  "type": "case de sante",
  "region": "Fatick",
  "lat": 13.96694,
  "lon": -16.31708
 },
 {
  "id": "1301",
  "name": "Soudiane Dimle",
  "type": "poste de sante",
  "region": "Fatick",
  "lat": 14.2441151204,
  "lon": -16.7111105766
 },
 {
  "id": "1305",
  "name": "Soum",
  "type": "poste de sante",
  "region": "Fatick",
  "lat": 14.0817483036,
  "lon": -16.4782258042
 },
 {
  "id": "1308",
  "name": "Sowane",
  "type": "poste de sante",
  "region": "Fatick",
  "lat": 14.333726745,
  "lon": -16.474700478
 },
 {
  "id": "1310",
  "name": "Tattaguine",
  "type": "poste de sante",
  "region": "Fatick",
  "lat": 14.4267727903,
  "lon": -16.6084406107
 },
 {
  "id": "1315",
  "name": "Thiabe Diene",
  "type": "case de sante",
  "region": "Fatick",
  "lat": 14.38466,
  "lon": -16.08453
 },
 {
  "id": "1316",
  "name": "Thialane",
  "type": "case de sante",
  "region": "Fatick",
  "lat": 13.92863,
  "lon": -16.6244
 },
 {
  "id": "1317",
  "name": "Thiamene Diogo",
  "type": "poste de sante",
  "region": "Fatick",
  "lat": 13.9139,
  "lon": -16.3583
 },
 {
  "id": "1318",
  "name": "Thiamene Keur Souleymane",
  "type": "poste de sante",
  "region": "Fatick",
  "lat": 13.9208393038,
  "lon": -16.2458020979
 },
 {
  "id": "1320",
  "name": "Thiare Ndialgui",
  "type": "poste de sante",
  "region": "Fatick",
  "lat": 14.4411068783,
  "lon": -16.2463391292
 },
 {
  "id": "1321",
  "name": "Thiele Pathieme",
  "type": "case de sante",
  "region": "Fatick",
  "lat": 14.50576,
  "lon": -15.98153
 },
 {
  "id": "1324",
  "name": "Toffaye",
  "type": "poste de sante",
  "region": "Fatick",
  "lat": 14.4162239516,
  "lon": -16.3082413622
 },
 {
  "id": "1325",
  "name": "Touba Mouride",
  "type": "poste de sante",
  "region": "Fatick",
  "lat": 13.8,
  "lon": -16.3306
 },
 {
  "id": "1327",
  "name": "Toubacouta",
  "type": "poste de sante",
  "region": "Fatick",
  "lat": 13.7862025438,
  "lon": -16.4740673036
 },
 {
  "id": "1328",
  "name": "Toucar",
  "type": "poste de sante",
  "region": "Fatick",
  "lat": 14.5366129954,
  "lon": -16.4703043313
 },
 {
  "id": "1331",
  "name": "Yargouye",
  "type": "poste de sante",
  "region": "Fatick",
  "lat": 14.3883230258,
  "lon": -15.8605582732
 },
 {
  "id": "1332",
  "name": "Yayene",
  "type": "case de sante",
  "region": "Fatick",
  "lat": 14.0748,
  "lon": -16.40752
 },
 {
  "id": "1334",
  "name": "Aimoumane Tambedou",
  "type": "case de sante",
  "region": "Kaffrine",
  "lat": 13.96307,
  "lon": -15.12886
 },
 {
  "id": "1335",
  "name": "Alouki",
  "type": "case de sante",
  "region": "Kaffrine",
  "lat": 14.38358,
  "lon": -15.51187
 },
 {
  "id": "1337",
  "name": "Arafat",
  "type": "poste de sante",
  "region": "Kaffrine",
  "lat": 14.0735096919,
  "lon": -15.0895629235
 },
 {
  "id": "1339",
  "name": "Baila Ndour",
  "type": "case de sante",
  "region": "Kaffrine",
  "lat": 14.22259,
  "lon": -15.72676
 },
 {
  "id": "1342",
  "name": "Barone",
  "type": "case de sante",
  "region": "Kaffrine",
  "lat": 14.04322,
  "lon": -15.46375
 },
 {
  "id": "1344",
  "name": "Bidiam",
  "type": "poste de sante",
  "region": "Kaffrine",
  "lat": 14.201947881,
  "lon": -15.7151161008
 },
 {
  "id": "1346",
  "name": "Birkilane",
  "type": "centre de sante",
  "region": "Kaffrine",
  "lat": 14.126762755,
  "lon": -15.7411481608
 },
 {
  "id": "1348",
  "name": "Boky Mbarka",
  "type": "poste de sante",
  "region": "Kaffrine",
  "lat": 14.4875510556,
  "lon": -15.6242218518
 },
 {
  "id": "1352",
  "name": "Boulel",
  "type": "poste de sante",
  "region": "Kaffrine",
  "lat": 14.2847731255,
  "lon": -15.5334700453
 },
 {
  "id": "1356",
  "name": "Darou",
  "type": "case de sante",
  "region": "Kaffrine",
  "lat": 13.98219,
  "lon": -15.3271
 },
 {
  "id": "1359",
  "name": "Darou Khady",
  "type": "case de sante",
  "region": "Kaffrine",
  "lat": 14.58566,
  "lon": -14.84929
 },
 {
  "id": "1360",
  "name": "Darou Koung Koung",
  "type": "poste de sante",
  "region": "Kaffrine",
  "lat": 14.4087811761,
  "lon": -14.8087496103
 },
 {
  "id": "1362",
  "name": "Darou Minam",
  "type": "poste de sante",
  "region": "Kaffrine",
  "lat": 14.093,
  "lon": -15.417
 },
 {
  "id": "1370",
  "name": "Diacksao",
  "type": "poste de sante",
  "region": "Kaffrine",
  "lat": 13.8458323466,
  "lon": -15.2304241948
 },
 {
  "id": "1371",
  "name": "Diaga Keur Serigne",
  "type": "poste de sante",
  "region": "Kaffrine",
  "lat": 14.6224805315,
  "lon": -15.3082622644
 },
 {
  "id": "1372",
  "name": "Diam Diam",
  "type": "poste de sante",
  "region": "Kaffrine",
  "lat": 14.1479833409,
  "lon": -15.2853365663
 },
 {
  "id": "1374",
  "name": "Diamagadio",
  "type": "poste de sante",
  "region": "Kaffrine",
  "lat": 13.7901191733,
  "lon": -15.4197140881
 },
 {
  "id": "1375",
  "name": "Diamaguene",
  "type": "poste de sante",
  "region": "Kaffrine",
  "lat": 14.0986602374,
  "lon": -15.5457694575
 },
 {
  "id": "1376",
  "name": "Diamal",
  "type": "poste de sante",
  "region": "Kaffrine",
  "lat": 14.1043190387,
  "lon": -15.7632269968
 },
 {
  "id": "1377",
  "name": "Dianke Souf",
  "type": "poste de sante",
  "region": "Kaffrine",
  "lat": 14.2289904661,
  "lon": -15.3346791191
 },
 {
  "id": "1380",
  "name": "Dimiskha",
  "type": "poste de sante",
  "region": "Kaffrine",
  "lat": 13.925547556,
  "lon": -15.1734348342
 },
 {
  "id": "1382",
  "name": "Diokoul",
  "type": "poste de sante",
  "region": "Kaffrine",
  "lat": 13.9546342134,
  "lon": -15.289709785
 },
 {
  "id": "1385",
  "name": "Diout Nguel",
  "type": "poste de sante",
  "region": "Kaffrine",
  "lat": 14.3558808534,
  "lon": -15.5826213371
 },
 {
  "id": "1388",
  "name": "Eps 1 Kaffrine",
  "type": "hopital",
  "region": "Kaffrine",
  "lat": 14.0995052279,
  "lon": -15.5569712169
 },
 {
  "id": "1392",
  "name": "Fass Thiekene",
  "type": "poste de sante",
  "region": "Kaffrine",
  "lat": 13.8939965295,
  "lon": -14.7507230239
 },
 {
  "id": "1393",
  "name": "Gaint Pathe",
  "type": "poste de sante",
  "region": "Kaffrine",
  "lat": 14.2816684189,
  "lon": -14.9278049201
 },
 {
  "id": "1396",
  "name": "Gama",
  "type": "case de sante",
  "region": "Kaffrine",
  "lat": 14.08944,
  "lon": -15.64814
 },
 {
  "id": "1399",
  "name": "Gniby",
  "type": "poste de sante",
  "region": "Kaffrine",
  "lat": 14.4350867787,
  "lon": -15.6533133111
 },
 {
  "id": "1400",
  "name": "Goudia Maktar",
  "type": "case de sante",
  "region": "Kaffrine",
  "lat": 13.99694,
  "lon": -15.63376
 },
 {
  "id": "1405",
  "name": "Guarane Fass",
  "type": "poste de sante",
  "region": "Kaffrine",
  "lat": 14.0833,
  "lon": -15.0333
 },
 {
  "id": "1406",
  "name": "Guer Mandakh",
  "type": "poste de sante",
  "region": "Kaffrine",
  "lat": 13.9168463233,
  "lon": -15.2567043979
 },
 {
  "id": "1407",
  "name": "Guerane Goumack",
  "type": "case de sante",
  "region": "Kaffrine",
  "lat": 14.08099,
  "lon": -15.01584
 },
 {
  "id": "1410",
  "name": "Hiliassa",
  "type": "case de sante",
  "region": "Kaffrine",
  "lat": 13.85247,
  "lon": -14.87769
 },
 {
  "id": "1415",
  "name": "Ida Mouride",
  "type": "poste de sante",
  "region": "Kaffrine",
  "lat": 13.9936442205,
  "lon": -14.6620819374
 },
 {
  "id": "1417",
  "name": "Jose Gras",
  "type": "poste de sante",
  "region": "Kaffrine",
  "lat": 14.09704,
  "lon": -15.55741
 },
 {
  "id": "1419",
  "name": "Kaffrine",
  "type": "centre de sante",
  "region": "Kaffrine",
  "lat": 14.1075424687,
  "lon": -15.5501953081
 },
 {
  "id": "1420",
  "name": "Kaffrine 2",
  "type": "poste de sante",
  "region": "Kaffrine",
  "lat": 14.1103858235,
  "lon": -15.537830429
 },
 {
  "id": "1421",
  "name": "Kahi",
  "type": "poste de sante",
  "region": "Kaffrine",
  "lat": 14.1418616179,
  "lon": -15.5529293407
 },
 {
  "id": "1424",
  "name": "Katakel",
  "type": "case de sante",
  "region": "Kaffrine",
  "lat": 14.00294,
  "lon": -15.44729
 },
 {
  "id": "1425",
  "name": "Kathiotte",
  "type": "poste de sante",
  "region": "Kaffrine",
  "lat": 13.9490778771,
  "lon": -15.4125542032
 },
 {
  "id": "1428",
  "name": "Keur Aly Lobe",
  "type": "case de sante",
  "region": "Kaffrine",
  "lat": 13.92457,
  "lon": -14.85218
 },
 {
  "id": "1437",
  "name": "Keur Mandoumbe",
  "type": "poste de sante",
  "region": "Kaffrine",
  "lat": 13.7890052846,
  "lon": -14.8568059396
 },
 {
  "id": "1438",
  "name": "Keur Mbouky",
  "type": "poste de sante",
  "region": "Kaffrine",
  "lat": 14.1356924674,
  "lon": -15.8303386874
 },
 {
  "id": "1439",
  "name": "Keur Ngaye",
  "type": "case de sante",
  "region": "Kaffrine",
  "lat": 14.033844,
  "lon": -14.742969
 },
 {
  "id": "1440",
  "name": "Keur Pathe",
  "type": "poste de sante",
  "region": "Kaffrine",
  "lat": 13.9959033585,
  "lon": -15.7166219173
 },
 {
  "id": "1445",
  "name": "Keur Siriky",
  "type": "case de sante",
  "region": "Kaffrine",
  "lat": 14.02735,
  "lon": -15.43285
 },
 {
  "id": "1447",
  "name": "Khaira Diaga",
  "type": "poste de sante",
  "region": "Kaffrine",
  "lat": 14.7016484512,
  "lon": -15.3646476948
 },
 {
  "id": "1448",
  "name": "Khende",
  "type": "case de sante",
  "region": "Kaffrine",
  "lat": 14.19194,
  "lon": -15.47538
 },
 {
  "id": "1449",
  "name": "Khosmane",
  "type": "case de sante",
  "region": "Kaffrine",
  "lat": 13.80879,
  "lon": -14.99356
 },
 {
  "id": "1450",
  "name": "Khourdane",
  "type": "poste de sante",
  "region": "Kaffrine",
  "lat": 14.0778435166,
  "lon": -14.6905113603
 },
 {
  "id": "1454",
  "name": "Koumbidia",
  "type": "poste de sante",
  "region": "Kaffrine",
  "lat": 13.9058525687,
  "lon": -14.8672263973
 },
 {
  "id": "1455",
  "name": "Koumpeulh",
  "type": "poste de sante",
  "region": "Kaffrine",
  "lat": 13.8294707171,
  "lon": -15.6169186434
 },
 {
  "id": "1457",
  "name": "Koungheul",
  "type": "centre de sante",
  "region": "Kaffrine",
  "lat": 13.9840771598,
  "lon": -14.7912638983
 },
 {
  "id": "1458",
  "name": "Koungheul Soce",
  "type": "case de sante",
  "region": "Kaffrine",
  "lat": 13.96016,
  "lon": -14.81856
 },
 {
  "id": "1464",
  "name": "Lour Escale",
  "type": "poste de sante",
  "region": "Kaffrine",
  "lat": 14.2252047825,
  "lon": -14.7418007692
 },
 {
  "id": "1465",
  "name": "Mabo",
  "type": "poste de sante",
  "region": "Kaffrine",
  "lat": 13.9159689446,
  "lon": -15.6685937921
 },
 {
  "id": "1466",
  "name": "Maka Belal",
  "type": "poste de sante",
  "region": "Kaffrine",
  "lat": 14.1101299913,
  "lon": -15.2350867548
 },
 {
  "id": "1469",
  "name": "Maka Yop",
  "type": "poste de sante",
  "region": "Kaffrine",
  "lat": 14.0340118399,
  "lon": -15.0221518516
 },
 {
  "id": "1470",
  "name": "Malem Hodar",
  "type": "centre de sante",
  "region": "Kaffrine",
  "lat": 14.0846526859,
  "lon": -15.2898042732
 },
 {
  "id": "1475",
  "name": "Mbaye Mbaye",
  "type": "case de sante",
  "region": "Kaffrine",
  "lat": 13.97403,
  "lon": -15.04653
 },
 {
  "id": "1478",
  "name": "Mbelbouck",
  "type": "poste de sante",
  "region": "Kaffrine",
  "lat": 14.0333455211,
  "lon": -15.3958026211
 },
 {
  "id": "1481",
  "name": "Mbeuleup",
  "type": "poste de sante",
  "region": "Kaffrine",
  "lat": 13.9336109707,
  "lon": -15.5391727564
 },
 {
  "id": "1487",
  "name": "Medina Lahine",
  "type": "case de sante",
  "region": "Kaffrine",
  "lat": 14.0054,
  "lon": -15.12729
 },
 {
  "id": "1489",
  "name": "Medina Salam 2",
  "type": "poste de sante",
  "region": "Kaffrine",
  "lat": 13.8266735758,
  "lon": -15.253513784
 },
 {
  "id": "1491",
  "name": "Medina Sy",
  "type": "poste de sante",
  "region": "Kaffrine",
  "lat": 14.2771210697,
  "lon": -15.4555469728
 },
 {
  "id": "1494",
  "name": "Meo Ndiobene",
  "type": "poste de sante",
  "region": "Kaffrine",
  "lat": 13.9032141758,
  "lon": -15.3467318212
 },
 {
  "id": "1495",
  "name": "Minal",
  "type": "poste de sante",
  "region": "Kaffrine",
  "lat": 13.8186663661,
  "lon": -14.7599789577
 },
 {
  "id": "1497",
  "name": "Missira Wadene",
  "type": "poste de sante",
  "region": "Kaffrine",
  "lat": 13.9937467437,
  "lon": -15.1199009098
 },
 {
  "id": "1500",
  "name": "Ndakar",
  "type": "case de sante",
  "region": "Kaffrine",
  "lat": 13.83742,
  "lon": -15.30986
 },
 {
  "id": "1502",
  "name": "Ndankh",
  "type": "case de sante",
  "region": "Kaffrine",
  "lat": 13.83965,
  "lon": -15.56222
 },
 {
  "id": "1503",
  "name": "Ndiao Bambaly",
  "type": "poste de sante",
  "region": "Kaffrine",
  "lat": 13.8553811307,
  "lon": -15.5468391164
 },
 {
  "id": "1505",
  "name": "Ndiayene Waly",
  "type": "poste de sante",
  "region": "Kaffrine",
  "lat": 14.1611437693,
  "lon": -15.8373600817
 },
 {
  "id": "1508",
  "name": "Ndiobene",
  "type": "poste de sante",
  "region": "Kaffrine",
  "lat": 14.294846871,
  "lon": -15.1874531673
 },
 {
  "id": "1512",
  "name": "Ndiognick",
  "type": "poste de sante",
  "region": "Kaffrine",
  "lat": 14.0328057519,
  "lon": -15.6446873363
 },
 {
  "id": "1513",
  "name": "Ndiopale B Diop",
  "type": "case de sante",
  "region": "Kaffrine",
  "lat": 13.87448,
  "lon": -15.61154
 },
 {
  "id": "1514",
  "name": "Ndiote Biram",
  "type": "case de sante",
  "region": "Kaffrine",
  "lat": 14.28939,
  "lon": -15.28741
 },
 {
  "id": "1515",
  "name": "Ndiote Seane",
  "type": "poste de sante",
  "region": "Kaffrine",
  "lat": 14.306346674,
  "lon": -15.2975384714
 },
 {
  "id": "1517",
  "name": "Ndioum Ngainth",
  "type": "poste de sante",
  "region": "Kaffrine",
  "lat": 14.3654098542,
  "lon": -15.1981034806
 },
 {
  "id": "1519",
  "name": "Ndoune",
  "type": "poste de sante",
  "region": "Kaffrine",
  "lat": 13.9790222344,
  "lon": -14.7211886535
 },
 {
  "id": "1520",
  "name": "Ndoyli",
  "type": "case de sante",
  "region": "Kaffrine",
  "lat": 13.88017,
  "lon": -15.56725
 },
 {
  "id": "1521",
  "name": "Nganda",
  "type": "poste de sante",
  "region": "Kaffrine",
  "lat": 13.8296748836,
  "lon": -15.4050867542
 },
 {
  "id": "1523",
  "name": "Ngayene",
  "type": "case de sante",
  "region": "Kaffrine",
  "lat": 14.15103,
  "lon": -15.00811
 },
 {
  "id": "1524",
  "name": "Ngodiba",
  "type": "poste de sante",
  "region": "Kaffrine",
  "lat": 14.0654683944,
  "lon": -15.5084525887
 },
 {
  "id": "1525",
  "name": "Ngouye",
  "type": "poste de sante",
  "region": "Kaffrine",
  "lat": 13.991522815,
  "lon": -15.5945942867
 },
 {
  "id": "1529",
  "name": "Niahene",
  "type": "case de sante",
  "region": "Kaffrine",
  "lat": 14.18606,
  "lon": -15.43502
 },
 {
  "id": "1532",
  "name": "Nianguene Djibril",
  "type": "case de sante",
  "region": "Kaffrine",
  "lat": 14.12404,
  "lon": -15.5813
 },
 {
  "id": "1538",
  "name": "Passy Mbelbouck",
  "type": "case de sante",
  "region": "Kaffrine",
  "lat": 14.07989,
  "lon": -15.39533
 },
 {
  "id": "1539",
  "name": "Pathe Thiangaye",
  "type": "poste de sante",
  "region": "Kaffrine",
  "lat": 13.866833944,
  "lon": -15.1411588441
 },
 {
  "id": "1541",
  "name": "Piram Manda",
  "type": "case de sante",
  "region": "Kaffrine",
  "lat": 13.91934,
  "lon": -14.73395
 },
 {
  "id": "1544",
  "name": "Ribot Escale",
  "type": "poste de sante",
  "region": "Kaffrine",
  "lat": 14.3719030273,
  "lon": -14.6881905542
 },
 {
  "id": "1546",
  "name": "Sagna",
  "type": "poste de sante",
  "region": "Kaffrine",
  "lat": 14.0929238457,
  "lon": -15.3871095083
 },